{
  "date": "2026-04-03",
  "generated": "2026-04-03T03:04:32.365Z",
  "sources": {
    "wa_fuelwatch": {
      "diesel": 440,
      "petrol": 0
    },
    "nsw_fuelcheck": {
      "diesel": 1054,
      "petrol": 1179
    }
  },
  "totalStations": 2673,
  "stations": [
    {
      "id": "wa:KUNUNURRA:CGL Fuel:diesel",
      "state": "WA",
      "source": "fuelwatch",
      "product": "diesel",
      "brand": "CGL Fuel",
      "name": "CGL Fuel",
      "location": "KUNUNURRA",
      "lat": -15.783391,
      "lng": 128.732259,
      "price": 227.5
    },
    {
      "id": "wa:KUNUNURRA:Caltex Kununurra Depot:diesel",
      "state": "WA",
      "source": "fuelwatch",
      "product": "diesel",
      "brand": "Caltex",
      "name": "Caltex Kununurra Depot",
      "location": "KUNUNURRA",
      "lat": -15.797461,
      "lng": 128.764816,
      "price": 285.9
    },
    {
      "id": "wa:KWINANA BEACH:Ampol Foodary Kwinana:diesel",
      "state": "WA",
      "source": "fuelwatch",
      "product": "diesel",
      "brand": "Ampol",
      "name": "Ampol Foodary Kwinana",
      "location": "KWINANA BEACH",
      "lat": -32.248836,
      "lng": 115.78268,
      "price": 288.2
    },
    {
      "id": "wa:WILLIAMS:Ampol Foodary Williams:diesel",
      "state": "WA",
      "source": "fuelwatch",
      "product": "diesel",
      "brand": "Ampol",
      "name": "Ampol Foodary Williams",
      "location": "WILLIAMS",
      "lat": -33.023352,
      "lng": 116.878086,
      "price": 289.2
    },
    {
      "id": "wa:BYFORD:Ampol Foodary Byford:diesel",
      "state": "WA",
      "source": "fuelwatch",
      "product": "diesel",
      "brand": "Ampol",
      "name": "Ampol Foodary Byford",
      "location": "BYFORD",
      "lat": -32.226368,
      "lng": 116.008,
      "price": 289.2
    },
    {
      "id": "wa:BECKENHAM:Burk Cannington:diesel",
      "state": "WA",
      "source": "fuelwatch",
      "product": "diesel",
      "brand": "Burk",
      "name": "Burk Cannington",
      "location": "BECKENHAM",
      "lat": -32.027183,
      "lng": 115.950013,
      "price": 289.3
    },
    {
      "id": "wa:OAKFORD:Burk Oakford:diesel",
      "state": "WA",
      "source": "fuelwatch",
      "product": "diesel",
      "brand": "Burk",
      "name": "Burk Oakford",
      "location": "OAKFORD",
      "lat": -32.205041,
      "lng": 115.926114,
      "price": 289.3
    },
    {
      "id": "wa:HIGH WYCOMBE:Ampol Foodary High Wycombe:diesel",
      "state": "WA",
      "source": "fuelwatch",
      "product": "diesel",
      "brand": "Ampol",
      "name": "Ampol Foodary High Wycombe",
      "location": "HIGH WYCOMBE",
      "lat": -31.951585,
      "lng": 115.987387,
      "price": 290.2
    },
    {
      "id": "wa:GELORUP:Ampol Foodary Gelorup:diesel",
      "state": "WA",
      "source": "fuelwatch",
      "product": "diesel",
      "brand": "Ampol",
      "name": "Ampol Foodary Gelorup",
      "location": "GELORUP",
      "lat": -33.393066,
      "lng": 115.641528,
      "price": 291.2
    },
    {
      "id": "wa:BECKENHAM:Liberty Beckenham:diesel",
      "state": "WA",
      "source": "fuelwatch",
      "product": "diesel",
      "brand": "Liberty",
      "name": "Liberty Beckenham",
      "location": "BECKENHAM",
      "lat": -32.022054,
      "lng": 115.954779,
      "price": 291.3
    },
    {
      "id": "wa:HIGH WYCOMBE:Shell High Wycombe:diesel",
      "state": "WA",
      "source": "fuelwatch",
      "product": "diesel",
      "brand": "Shell",
      "name": "Shell High Wycombe",
      "location": "HIGH WYCOMBE",
      "lat": -31.938206,
      "lng": 115.992146,
      "price": 293.5
    },
    {
      "id": "wa:FORRESTDALE:Ampol Foodary Forrestdale:diesel",
      "state": "WA",
      "source": "fuelwatch",
      "product": "diesel",
      "brand": "Ampol",
      "name": "Ampol Foodary Forrestdale",
      "location": "FORRESTDALE",
      "lat": -32.146558,
      "lng": 115.965549,
      "price": 294.2
    },
    {
      "id": "wa:BRIDGETOWN:Ampol Bridgetown Diesel Stop:diesel",
      "state": "WA",
      "source": "fuelwatch",
      "product": "diesel",
      "brand": "Ampol",
      "name": "Ampol Bridgetown Diesel Stop",
      "location": "BRIDGETOWN",
      "lat": -33.959132,
      "lng": 116.138746,
      "price": 294.2
    },
    {
      "id": "wa:BIBRA LAKE:Ampol Bibra Lake Diesel Stop:diesel",
      "state": "WA",
      "source": "fuelwatch",
      "product": "diesel",
      "brand": "Ampol",
      "name": "Ampol Bibra Lake Diesel Stop",
      "location": "BIBRA LAKE",
      "lat": -32.1094,
      "lng": 115.8097,
      "price": 294.2
    },
    {
      "id": "wa:DALYELLUP:Liberty Dalyellup:diesel",
      "state": "WA",
      "source": "fuelwatch",
      "product": "diesel",
      "brand": "Liberty",
      "name": "Liberty Dalyellup",
      "location": "DALYELLUP",
      "lat": -33.396215,
      "lng": 115.636958,
      "price": 294.5
    },
    {
      "id": "wa:WELSHPOOL:Ampol Welshpool Diesel Stop:diesel",
      "state": "WA",
      "source": "fuelwatch",
      "product": "diesel",
      "brand": "Ampol",
      "name": "Ampol Welshpool Diesel Stop",
      "location": "WELSHPOOL",
      "lat": -31.990084,
      "lng": 115.962119,
      "price": 295.2
    },
    {
      "id": "wa:LANDSDALE:Liberty Landsdale:diesel",
      "state": "WA",
      "source": "fuelwatch",
      "product": "diesel",
      "brand": "Liberty",
      "name": "Liberty Landsdale",
      "location": "LANDSDALE",
      "lat": -31.802758,
      "lng": 115.837737,
      "price": 295.3
    },
    {
      "id": "wa:LANDSDALE:Burk Landsdale:diesel",
      "state": "WA",
      "source": "fuelwatch",
      "product": "diesel",
      "brand": "Burk",
      "name": "Burk Landsdale",
      "location": "LANDSDALE",
      "lat": -31.79903,
      "lng": 115.847126,
      "price": 295.3
    },
    {
      "id": "wa:MOUNT LAWLEY:Burk Mount Lawley:diesel",
      "state": "WA",
      "source": "fuelwatch",
      "product": "diesel",
      "brand": "Burk",
      "name": "Burk Mount Lawley",
      "location": "MOUNT LAWLEY",
      "lat": -31.925887,
      "lng": 115.880225,
      "price": 295.3
    },
    {
      "id": "wa:WANNEROO:United Tapping:diesel",
      "state": "WA",
      "source": "fuelwatch",
      "product": "diesel",
      "brand": "United",
      "name": "United Tapping",
      "location": "WANNEROO",
      "lat": -31.719744,
      "lng": 115.783408,
      "price": 295.5
    },
    {
      "id": "wa:BAYONET HEAD:Liberty Oyster Harbour:diesel",
      "state": "WA",
      "source": "fuelwatch",
      "product": "diesel",
      "brand": "Liberty",
      "name": "Liberty Oyster Harbour",
      "location": "BAYONET HEAD",
      "lat": -34.981779,
      "lng": 117.922103,
      "price": 295.5
    },
    {
      "id": "wa:MCKAIL:Liberty McKail:diesel",
      "state": "WA",
      "source": "fuelwatch",
      "product": "diesel",
      "brand": "Liberty",
      "name": "Liberty McKail",
      "location": "MCKAIL",
      "lat": -34.985495,
      "lng": 117.851724,
      "price": 295.5
    },
    {
      "id": "wa:BANKSIA GROVE:Liberty Banksia Grove:diesel",
      "state": "WA",
      "source": "fuelwatch",
      "product": "diesel",
      "brand": "Liberty",
      "name": "Liberty Banksia Grove",
      "location": "BANKSIA GROVE",
      "lat": -31.703225,
      "lng": 115.798512,
      "price": 295.5
    },
    {
      "id": "wa:PINJARRA:Liberty Pinjarra:diesel",
      "state": "WA",
      "source": "fuelwatch",
      "product": "diesel",
      "brand": "Liberty",
      "name": "Liberty Pinjarra",
      "location": "PINJARRA",
      "lat": -32.626282,
      "lng": 115.869595,
      "price": 295.5
    },
    {
      "id": "wa:PINJARRA:United Pinjarra Truck Stop:diesel",
      "state": "WA",
      "source": "fuelwatch",
      "product": "diesel",
      "brand": "United",
      "name": "United Pinjarra Truck Stop",
      "location": "PINJARRA",
      "lat": -32.610785,
      "lng": 115.848041,
      "price": 295.5
    },
    {
      "id": "wa:DONGARA:Liberty Dongara:diesel",
      "state": "WA",
      "source": "fuelwatch",
      "product": "diesel",
      "brand": "Liberty",
      "name": "Liberty Dongara",
      "location": "DONGARA",
      "lat": -29.253038,
      "lng": 114.956368,
      "price": 295.5
    },
    {
      "id": "wa:EAST ROCKINGHAM:Liberty East Rockingham:diesel",
      "state": "WA",
      "source": "fuelwatch",
      "product": "diesel",
      "brand": "Liberty",
      "name": "Liberty East Rockingham",
      "location": "EAST ROCKINGHAM",
      "lat": -32.2766666,
      "lng": 115.773403,
      "price": 295.5
    },
    {
      "id": "wa:GOSNELLS:Liberty Gosnells:diesel",
      "state": "WA",
      "source": "fuelwatch",
      "product": "diesel",
      "brand": "Liberty",
      "name": "Liberty Gosnells",
      "location": "GOSNELLS",
      "lat": -32.075216,
      "lng": 116.005816,
      "price": 295.5
    },
    {
      "id": "wa:WANNEROO:Liberty Tapping:diesel",
      "state": "WA",
      "source": "fuelwatch",
      "product": "diesel",
      "brand": "Liberty",
      "name": "Liberty Tapping",
      "location": "WANNEROO",
      "lat": -31.720162,
      "lng": 115.783898,
      "price": 295.5
    },
    {
      "id": "wa:CATABY:Liberty Cataby:diesel",
      "state": "WA",
      "source": "fuelwatch",
      "product": "diesel",
      "brand": "Liberty",
      "name": "Liberty Cataby",
      "location": "CATABY",
      "lat": -30.735706,
      "lng": 115.539091,
      "price": 295.5
    },
    {
      "id": "wa:NAVAL BASE:Liberty Naval Base:diesel",
      "state": "WA",
      "source": "fuelwatch",
      "product": "diesel",
      "brand": "Liberty",
      "name": "Liberty Naval Base",
      "location": "NAVAL BASE",
      "lat": -32.197618,
      "lng": 115.783018,
      "price": 295.5
    },
    {
      "id": "wa:WEST BUSSELTON:Liberty Busselton West:diesel",
      "state": "WA",
      "source": "fuelwatch",
      "product": "diesel",
      "brand": "Liberty",
      "name": "Liberty Busselton West",
      "location": "WEST BUSSELTON",
      "lat": -33.656076,
      "lng": 115.341215,
      "price": 295.5
    },
    {
      "id": "wa:O'CONNOR:Liberty O'Connor:diesel",
      "state": "WA",
      "source": "fuelwatch",
      "product": "diesel",
      "brand": "Liberty",
      "name": "Liberty O'Connor",
      "location": "O'CONNOR",
      "lat": -32.063065,
      "lng": 115.792017,
      "price": 295.5
    },
    {
      "id": "wa:NAVAL BASE:United Naval Base Truck Stop:diesel",
      "state": "WA",
      "source": "fuelwatch",
      "product": "diesel",
      "brand": "United",
      "name": "United Naval Base Truck Stop",
      "location": "NAVAL BASE",
      "lat": -32.195425,
      "lng": 115.783106,
      "price": 295.9
    },
    {
      "id": "wa:STRATTON:Ampol Foodary Stratton:diesel",
      "state": "WA",
      "source": "fuelwatch",
      "product": "diesel",
      "brand": "Ampol",
      "name": "Ampol Foodary Stratton",
      "location": "STRATTON",
      "lat": -31.865605,
      "lng": 116.032828,
      "price": 296.2
    },
    {
      "id": "wa:GOSNELLS:Ampol Foodary Gosnells North:diesel",
      "state": "WA",
      "source": "fuelwatch",
      "product": "diesel",
      "brand": "Ampol",
      "name": "Ampol Foodary Gosnells North",
      "location": "GOSNELLS",
      "lat": -32.064148,
      "lng": 115.999536,
      "price": 296.2
    },
    {
      "id": "wa:CANNING VALE:Ampol Foodary Bannister Road:diesel",
      "state": "WA",
      "source": "fuelwatch",
      "product": "diesel",
      "brand": "Ampol",
      "name": "Ampol Foodary Bannister Road",
      "location": "CANNING VALE",
      "lat": -32.06343,
      "lng": 115.926402,
      "price": 296.2
    },
    {
      "id": "wa:OAKFORD:Vibe Oakford Truckstop:diesel",
      "state": "WA",
      "source": "fuelwatch",
      "product": "diesel",
      "brand": "Vibe",
      "name": "Vibe Oakford Truckstop",
      "location": "OAKFORD",
      "lat": -32.209305,
      "lng": 115.952279,
      "price": 296.7
    },
    {
      "id": "wa:MOUNT MELVILLE:United Albany Central:diesel",
      "state": "WA",
      "source": "fuelwatch",
      "product": "diesel",
      "brand": "United",
      "name": "United Albany Central",
      "location": "MOUNT MELVILLE",
      "lat": -35.005762,
      "lng": 117.866879,
      "price": 296.9
    },
    {
      "id": "wa:ORANA:United Albany Orana:diesel",
      "state": "WA",
      "source": "fuelwatch",
      "product": "diesel",
      "brand": "United",
      "name": "United Albany Orana",
      "location": "ORANA",
      "lat": -35.001813,
      "lng": 117.863298,
      "price": 296.9
    },
    {
      "id": "wa:WONTHELLA:Ampol Foodary Wonthella:diesel",
      "state": "WA",
      "source": "fuelwatch",
      "product": "diesel",
      "brand": "Ampol",
      "name": "Ampol Foodary Wonthella",
      "location": "WONTHELLA",
      "lat": -28.778125,
      "lng": 114.626588,
      "price": 297.2
    },
    {
      "id": "wa:WILLYUNG:Ampol Albany Diesel Stop:diesel",
      "state": "WA",
      "source": "fuelwatch",
      "product": "diesel",
      "brand": "Ampol",
      "name": "Ampol Albany Diesel Stop",
      "location": "WILLYUNG",
      "lat": -34.959873,
      "lng": 117.886725,
      "price": 297.2
    },
    {
      "id": "wa:ALKIMOS:Burk Alkimos:diesel",
      "state": "WA",
      "source": "fuelwatch",
      "product": "diesel",
      "brand": "Burk",
      "name": "Burk Alkimos",
      "location": "ALKIMOS",
      "lat": -31.628239,
      "lng": 115.69118,
      "price": 297.3
    },
    {
      "id": "wa:BASSENDEAN:Burk Bassendean:diesel",
      "state": "WA",
      "source": "fuelwatch",
      "product": "diesel",
      "brand": "Burk",
      "name": "Burk Bassendean",
      "location": "BASSENDEAN",
      "lat": -31.901105,
      "lng": 115.959118,
      "price": 297.3
    },
    {
      "id": "wa:MALAGA:Burk Malaga:diesel",
      "state": "WA",
      "source": "fuelwatch",
      "product": "diesel",
      "brand": "Burk",
      "name": "Burk Malaga",
      "location": "MALAGA",
      "lat": -31.855778,
      "lng": 115.891559,
      "price": 297.3
    },
    {
      "id": "wa:SCARBOROUGH:Shell Reddy Express Scarborough:diesel",
      "state": "WA",
      "source": "fuelwatch",
      "product": "diesel",
      "brand": "Reddy Express",
      "name": "Shell Reddy Express Scarborough",
      "location": "SCARBOROUGH",
      "lat": -31.892841,
      "lng": 115.757287,
      "price": 297.5
    },
    {
      "id": "wa:KINGSLEY:Shell Reddy Express Kingsley:diesel",
      "state": "WA",
      "source": "fuelwatch",
      "product": "diesel",
      "brand": "Reddy Express",
      "name": "Shell Reddy Express Kingsley",
      "location": "KINGSLEY",
      "lat": -31.81975,
      "lng": 115.805778,
      "price": 297.5
    },
    {
      "id": "wa:UPPER SWAN:Shell Reddy Express Upper Swan Roadhouse:diesel",
      "state": "WA",
      "source": "fuelwatch",
      "product": "diesel",
      "brand": "Reddy Express",
      "name": "Shell Reddy Express Upper Swan Roadhouse",
      "location": "UPPER SWAN",
      "lat": -31.774597,
      "lng": 116.025849,
      "price": 297.5
    },
    {
      "id": "wa:JOLIMONT:Shell Reddy Express Jolimont:diesel",
      "state": "WA",
      "source": "fuelwatch",
      "product": "diesel",
      "brand": "Reddy Express",
      "name": "Shell Reddy Express Jolimont",
      "location": "JOLIMONT",
      "lat": -31.947273,
      "lng": 115.811941,
      "price": 297.5
    },
    {
      "id": "wa:WEST PERTH:Shell Reddy Express West Perth:diesel",
      "state": "WA",
      "source": "fuelwatch",
      "product": "diesel",
      "brand": "Reddy Express",
      "name": "Shell Reddy Express West Perth",
      "location": "WEST PERTH",
      "lat": -31.945494,
      "lng": 115.839719,
      "price": 297.5
    },
    {
      "id": "wa:PALMYRA:Shell Reddy Express Palmyra:diesel",
      "state": "WA",
      "source": "fuelwatch",
      "product": "diesel",
      "brand": "Reddy Express",
      "name": "Shell Reddy Express Palmyra",
      "location": "PALMYRA",
      "lat": -32.047319,
      "lng": 115.779904,
      "price": 297.5
    },
    {
      "id": "wa:EAST VICTORIA PARK:Shell Reddy Express Victoria Park:diesel",
      "state": "WA",
      "source": "fuelwatch",
      "product": "diesel",
      "brand": "Reddy Express",
      "name": "Shell Reddy Express Victoria Park",
      "location": "EAST VICTORIA PARK",
      "lat": -31.985535,
      "lng": 115.896186,
      "price": 297.5
    },
    {
      "id": "wa:LANGFORD:Shell Reddy Express Langford:diesel",
      "state": "WA",
      "source": "fuelwatch",
      "product": "diesel",
      "brand": "Reddy Express",
      "name": "Shell Reddy Express Langford",
      "location": "LANGFORD",
      "lat": -32.031879,
      "lng": 115.938841,
      "price": 297.5
    },
    {
      "id": "wa:KEWDALE:Shell Reddy Express Kewdale:diesel",
      "state": "WA",
      "source": "fuelwatch",
      "product": "diesel",
      "brand": "Reddy Express",
      "name": "Shell Reddy Express Kewdale",
      "location": "KEWDALE",
      "lat": -31.980262,
      "lng": 115.958507,
      "price": 297.5
    },
    {
      "id": "wa:BARRAGUP:Shell Reddy Express Mandurah:diesel",
      "state": "WA",
      "source": "fuelwatch",
      "product": "diesel",
      "brand": "Reddy Express",
      "name": "Shell Reddy Express Mandurah",
      "location": "BARRAGUP",
      "lat": -32.551075,
      "lng": 115.778636,
      "price": 297.5
    },
    {
      "id": "wa:HALLS HEAD:Shell Reddy Express Halls Head:diesel",
      "state": "WA",
      "source": "fuelwatch",
      "product": "diesel",
      "brand": "Reddy Express",
      "name": "Shell Reddy Express Halls Head",
      "location": "HALLS HEAD",
      "lat": -32.550115,
      "lng": 115.70273,
      "price": 297.5
    },
    {
      "id": "wa:GLEN IRIS:Shell Reddy Express Bunbury Gateway:diesel",
      "state": "WA",
      "source": "fuelwatch",
      "product": "diesel",
      "brand": "Reddy Express",
      "name": "Shell Reddy Express Bunbury Gateway",
      "location": "GLEN IRIS",
      "lat": -33.334737,
      "lng": 115.685315,
      "price": 297.5
    },
    {
      "id": "wa:BUSSELTON:Shell Reddy Express Busselton:diesel",
      "state": "WA",
      "source": "fuelwatch",
      "product": "diesel",
      "brand": "Reddy Express",
      "name": "Shell Reddy Express Busselton",
      "location": "BUSSELTON",
      "lat": -33.660891,
      "lng": 115.355661,
      "price": 297.5
    },
    {
      "id": "wa:VASSE:Shell Reddy Express Vasse:diesel",
      "state": "WA",
      "source": "fuelwatch",
      "product": "diesel",
      "brand": "Reddy Express",
      "name": "Shell Reddy Express Vasse",
      "location": "VASSE",
      "lat": -33.675175,
      "lng": 115.251206,
      "price": 297.5
    },
    {
      "id": "wa:ORANA:Shell Reddy Express Albany Orana:diesel",
      "state": "WA",
      "source": "fuelwatch",
      "product": "diesel",
      "brand": "Reddy Express",
      "name": "Shell Reddy Express Albany Orana",
      "location": "ORANA",
      "lat": -35.002367,
      "lng": 117.865131,
      "price": 297.5
    },
    {
      "id": "wa:WARWICK:Shell Reddy Express Warwick:diesel",
      "state": "WA",
      "source": "fuelwatch",
      "product": "diesel",
      "brand": "Reddy Express",
      "name": "Shell Reddy Express Warwick",
      "location": "WARWICK",
      "lat": -31.844434,
      "lng": 115.812742,
      "price": 297.5
    },
    {
      "id": "wa:GIRRAWHEEN:Shell Reddy Express Girrawheen:diesel",
      "state": "WA",
      "source": "fuelwatch",
      "product": "diesel",
      "brand": "Reddy Express",
      "name": "Shell Reddy Express Girrawheen",
      "location": "GIRRAWHEEN",
      "lat": -31.834601,
      "lng": 115.828903,
      "price": 297.5
    },
    {
      "id": "wa:MIDDLE SWAN:Shell Reddy Express Middle Swan:diesel",
      "state": "WA",
      "source": "fuelwatch",
      "product": "diesel",
      "brand": "Reddy Express",
      "name": "Shell Reddy Express Middle Swan",
      "location": "MIDDLE SWAN",
      "lat": -31.874449,
      "lng": 116.011086,
      "price": 297.5
    },
    {
      "id": "wa:WEMBLEY:Shell Reddy Express Wembley:diesel",
      "state": "WA",
      "source": "fuelwatch",
      "product": "diesel",
      "brand": "Reddy Express",
      "name": "Shell Reddy Express Wembley",
      "location": "WEMBLEY",
      "lat": -31.941023,
      "lng": 115.811858,
      "price": 297.5
    },
    {
      "id": "wa:CLOVERDALE:Shell Reddy Express Cloverdale:diesel",
      "state": "WA",
      "source": "fuelwatch",
      "product": "diesel",
      "brand": "Reddy Express",
      "name": "Shell Reddy Express Cloverdale",
      "location": "CLOVERDALE",
      "lat": -31.965057,
      "lng": 115.933164,
      "price": 297.5
    },
    {
      "id": "wa:MADDINGTON:Shell Reddy Express Maddington:diesel",
      "state": "WA",
      "source": "fuelwatch",
      "product": "diesel",
      "brand": "Reddy Express",
      "name": "Shell Reddy Express Maddington",
      "location": "MADDINGTON",
      "lat": -32.055352,
      "lng": 115.979908,
      "price": 297.5
    },
    {
      "id": "wa:WILLETTON:Shell Reddy Express Willetton:diesel",
      "state": "WA",
      "source": "fuelwatch",
      "product": "diesel",
      "brand": "Reddy Express",
      "name": "Shell Reddy Express Willetton",
      "location": "WILLETTON",
      "lat": -32.039109,
      "lng": 115.893756,
      "price": 297.5
    },
    {
      "id": "wa:FORRESTFIELD:Shell Reddy Express Forrestfield:diesel",
      "state": "WA",
      "source": "fuelwatch",
      "product": "diesel",
      "brand": "Reddy Express",
      "name": "Shell Reddy Express Forrestfield",
      "location": "FORRESTFIELD",
      "lat": -31.988699,
      "lng": 116.010746,
      "price": 297.5
    },
    {
      "id": "wa:COLLIE:Shell Reddy Express Collie:diesel",
      "state": "WA",
      "source": "fuelwatch",
      "product": "diesel",
      "brand": "Reddy Express",
      "name": "Shell Reddy Express Collie",
      "location": "COLLIE",
      "lat": -33.357345,
      "lng": 116.151939,
      "price": 297.5
    },
    {
      "id": "wa:VITTORIA:Shell Reddy Express Bunbury Outbound:diesel",
      "state": "WA",
      "source": "fuelwatch",
      "product": "diesel",
      "brand": "Reddy Express",
      "name": "Shell Reddy Express Bunbury Outbound",
      "location": "VITTORIA",
      "lat": -33.334477,
      "lng": 115.682266,
      "price": 297.5
    },
    {
      "id": "wa:FREMANTLE:Shell Reddy Express Fremantle:diesel",
      "state": "WA",
      "source": "fuelwatch",
      "product": "diesel",
      "brand": "Reddy Express",
      "name": "Shell Reddy Express Fremantle",
      "location": "FREMANTLE",
      "lat": -32.063235,
      "lng": 115.756663,
      "price": 297.5
    },
    {
      "id": "wa:PERTH:Shell Reddy Express Perth:diesel",
      "state": "WA",
      "source": "fuelwatch",
      "product": "diesel",
      "brand": "Reddy Express",
      "name": "Shell Reddy Express Perth",
      "location": "PERTH",
      "lat": -31.940953,
      "lng": 115.863904,
      "price": 297.5
    },
    {
      "id": "wa:BRENTWOOD:Shell Reddy Express Brentwood:diesel",
      "state": "WA",
      "source": "fuelwatch",
      "product": "diesel",
      "brand": "Reddy Express",
      "name": "Shell Reddy Express Brentwood",
      "location": "BRENTWOOD",
      "lat": -32.041448,
      "lng": 115.848868,
      "price": 297.5
    },
    {
      "id": "wa:BICTON:Shell Reddy Express Bicton:diesel",
      "state": "WA",
      "source": "fuelwatch",
      "product": "diesel",
      "brand": "Reddy Express",
      "name": "Shell Reddy Express Bicton",
      "location": "BICTON",
      "lat": -32.03413,
      "lng": 115.792776,
      "price": 297.5
    },
    {
      "id": "wa:NORTHAM:Shell Reddy Express Northam:diesel",
      "state": "WA",
      "source": "fuelwatch",
      "product": "diesel",
      "brand": "Reddy Express",
      "name": "Shell Reddy Express Northam",
      "location": "NORTHAM",
      "lat": -31.657795,
      "lng": 116.669547,
      "price": 297.5
    },
    {
      "id": "wa:WANGARA:Shell Reddy Express Wangara:diesel",
      "state": "WA",
      "source": "fuelwatch",
      "product": "diesel",
      "brand": "Reddy Express",
      "name": "Shell Reddy Express Wangara",
      "location": "WANGARA",
      "lat": -31.791963,
      "lng": 115.852478,
      "price": 297.5
    },
    {
      "id": "wa:OCEAN REEF:Shell Reddy Express Ocean Reef:diesel",
      "state": "WA",
      "source": "fuelwatch",
      "product": "diesel",
      "brand": "Reddy Express",
      "name": "Shell Reddy Express Ocean Reef",
      "location": "OCEAN REEF",
      "lat": -31.76744,
      "lng": 115.749421,
      "price": 297.5
    },
    {
      "id": "wa:ELLENBROOK:Shell Reddy Express Ellenbrook:diesel",
      "state": "WA",
      "source": "fuelwatch",
      "product": "diesel",
      "brand": "Reddy Express",
      "name": "Shell Reddy Express Ellenbrook",
      "location": "ELLENBROOK",
      "lat": -31.775,
      "lng": 115.96,
      "price": 297.5
    },
    {
      "id": "wa:BAYSWATER:Shell Reddy Express Bayswater:diesel",
      "state": "WA",
      "source": "fuelwatch",
      "product": "diesel",
      "brand": "Reddy Express",
      "name": "Shell Reddy Express Bayswater",
      "location": "BAYSWATER",
      "lat": -31.906734,
      "lng": 115.92665,
      "price": 297.5
    },
    {
      "id": "wa:DIANELLA:Shell Reddy Express Dianella:diesel",
      "state": "WA",
      "source": "fuelwatch",
      "product": "diesel",
      "brand": "Reddy Express",
      "name": "Shell Reddy Express Dianella",
      "location": "DIANELLA",
      "lat": -31.905801,
      "lng": 115.8827,
      "price": 297.5
    },
    {
      "id": "wa:BUTLER:Shell Reddy Express Brighton:diesel",
      "state": "WA",
      "source": "fuelwatch",
      "product": "diesel",
      "brand": "Reddy Express",
      "name": "Shell Reddy Express Brighton",
      "location": "BUTLER",
      "lat": -31.638264,
      "lng": 115.69551,
      "price": 297.5
    },
    {
      "id": "wa:MOUNT PLEASANT:Shell Reddy Express Mount Pleasant:diesel",
      "state": "WA",
      "source": "fuelwatch",
      "product": "diesel",
      "brand": "Reddy Express",
      "name": "Shell Reddy Express Mount Pleasant",
      "location": "MOUNT PLEASANT",
      "lat": -32.012511,
      "lng": 115.850077,
      "price": 297.5
    },
    {
      "id": "wa:COMO:OTR Como:diesel",
      "state": "WA",
      "source": "fuelwatch",
      "product": "diesel",
      "brand": "Shell",
      "name": "OTR Como",
      "location": "COMO",
      "lat": -32.012091,
      "lng": 115.864427,
      "price": 297.5
    },
    {
      "id": "wa:BIBRA LAKE:Shell Reddy Express Bibra Lake:diesel",
      "state": "WA",
      "source": "fuelwatch",
      "product": "diesel",
      "brand": "Reddy Express",
      "name": "Shell Reddy Express Bibra Lake",
      "location": "BIBRA LAKE",
      "lat": -32.116954,
      "lng": 115.807471,
      "price": 297.5
    },
    {
      "id": "wa:CANNING VALE:Shell Reddy Express Canning Vale:diesel",
      "state": "WA",
      "source": "fuelwatch",
      "product": "diesel",
      "brand": "Reddy Express",
      "name": "Shell Reddy Express Canning Vale",
      "location": "CANNING VALE",
      "lat": -32.070349,
      "lng": 115.895596,
      "price": 297.5
    },
    {
      "id": "wa:NORTH PERTH:Shell Reddy Express Mount Lawley:diesel",
      "state": "WA",
      "source": "fuelwatch",
      "product": "diesel",
      "brand": "Reddy Express",
      "name": "Shell Reddy Express Mount Lawley",
      "location": "NORTH PERTH",
      "lat": -31.923821,
      "lng": 115.859281,
      "price": 297.5
    },
    {
      "id": "wa:CLARKSON:Shell Reddy Express Clarkson:diesel",
      "state": "WA",
      "source": "fuelwatch",
      "product": "diesel",
      "brand": "Reddy Express",
      "name": "Shell Reddy Express Clarkson",
      "location": "CLARKSON",
      "lat": -31.691894,
      "lng": 115.716118,
      "price": 297.5
    },
    {
      "id": "wa:ARMADALE:Shell Reddy Express Brookdale:diesel",
      "state": "WA",
      "source": "fuelwatch",
      "product": "diesel",
      "brand": "Reddy Express",
      "name": "Shell Reddy Express Brookdale",
      "location": "ARMADALE",
      "lat": -32.147485,
      "lng": 115.985303,
      "price": 297.5
    },
    {
      "id": "wa:ARMADALE:Shell Reddy Express Armadale:diesel",
      "state": "WA",
      "source": "fuelwatch",
      "product": "diesel",
      "brand": "Reddy Express",
      "name": "Shell Reddy Express Armadale",
      "location": "ARMADALE",
      "lat": -32.168864,
      "lng": 116.014864,
      "price": 297.5
    },
    {
      "id": "wa:OSBORNE PARK:Shell Reddy Express Osborne Park:diesel",
      "state": "WA",
      "source": "fuelwatch",
      "product": "diesel",
      "brand": "Reddy Express",
      "name": "Shell Reddy Express Osborne Park",
      "location": "OSBORNE PARK",
      "lat": -31.907535,
      "lng": 115.819092,
      "price": 297.5
    },
    {
      "id": "wa:SOUTHERN RIVER:Shell Reddy Express Southern River:diesel",
      "state": "WA",
      "source": "fuelwatch",
      "product": "diesel",
      "brand": "Reddy Express",
      "name": "Shell Reddy Express Southern River",
      "location": "SOUTHERN RIVER",
      "lat": -32.103521,
      "lng": 115.934721,
      "price": 297.5
    },
    {
      "id": "wa:KARAWARA:Shell Reddy Express Karawara:diesel",
      "state": "WA",
      "source": "fuelwatch",
      "product": "diesel",
      "brand": "Reddy Express",
      "name": "Shell Reddy Express Karawara",
      "location": "KARAWARA",
      "lat": -32.011927,
      "lng": 115.884145,
      "price": 297.5
    },
    {
      "id": "wa:LEEMING:Shell Reddy Express Leeming:diesel",
      "state": "WA",
      "source": "fuelwatch",
      "product": "diesel",
      "brand": "Reddy Express",
      "name": "Shell Reddy Express Leeming",
      "location": "LEEMING",
      "lat": -32.079015,
      "lng": 115.858415,
      "price": 297.5
    },
    {
      "id": "wa:BANKSIA GROVE:Shell Reddy Express Banksia Grove:diesel",
      "state": "WA",
      "source": "fuelwatch",
      "product": "diesel",
      "brand": "Reddy Express",
      "name": "Shell Reddy Express Banksia Grove",
      "location": "BANKSIA GROVE",
      "lat": -31.70653,
      "lng": 115.802679,
      "price": 297.5
    },
    {
      "id": "wa:SOUTH PERTH:Shell Reddy Express South Perth:diesel",
      "state": "WA",
      "source": "fuelwatch",
      "product": "diesel",
      "brand": "Reddy Express",
      "name": "Shell Reddy Express South Perth",
      "location": "SOUTH PERTH",
      "lat": -31.974773,
      "lng": 115.881635,
      "price": 297.5
    },
    {
      "id": "wa:BUNBURY:OTR Bunbury:diesel",
      "state": "WA",
      "source": "fuelwatch",
      "product": "diesel",
      "brand": "Shell",
      "name": "OTR Bunbury",
      "location": "BUNBURY",
      "lat": -33.33,
      "lng": 115.641575,
      "price": 297.5
    },
    {
      "id": "wa:SEVILLE GROVE:Shell Reddy Express Westfield:diesel",
      "state": "WA",
      "source": "fuelwatch",
      "product": "diesel",
      "brand": "Reddy Express",
      "name": "Shell Reddy Express Westfield",
      "location": "SEVILLE GROVE",
      "lat": -32.130396,
      "lng": 116.000966,
      "price": 297.5
    },
    {
      "id": "wa:KWINANA BEACH:Shell Reddy Express Kwinana Beach:diesel",
      "state": "WA",
      "source": "fuelwatch",
      "product": "diesel",
      "brand": "Reddy Express",
      "name": "Shell Reddy Express Kwinana Beach",
      "location": "KWINANA BEACH",
      "lat": -32.243693,
      "lng": 115.776587,
      "price": 297.5
    },
    {
      "id": "wa:MYAREE:Shell Reddy Express Myaree:diesel",
      "state": "WA",
      "source": "fuelwatch",
      "product": "diesel",
      "brand": "Reddy Express",
      "name": "Shell Reddy Express Myaree",
      "location": "MYAREE",
      "lat": -32.039649,
      "lng": 115.815283,
      "price": 297.5
    },
    {
      "id": "wa:WAIKIKI:Shell Reddy Express Waikiki:diesel",
      "state": "WA",
      "source": "fuelwatch",
      "product": "diesel",
      "brand": "Reddy Express",
      "name": "Shell Reddy Express Waikiki",
      "location": "WAIKIKI",
      "lat": -32.315121,
      "lng": 115.753183,
      "price": 297.5
    },
    {
      "id": "wa:BULL CREEK:Shell Reddy Express Bull Creek:diesel",
      "state": "WA",
      "source": "fuelwatch",
      "product": "diesel",
      "brand": "Reddy Express",
      "name": "Shell Reddy Express Bull Creek",
      "location": "BULL CREEK",
      "lat": -32.063327,
      "lng": 115.857827,
      "price": 297.5
    },
    {
      "id": "wa:BERTRAM:Shell Reddy Express Casuarina:diesel",
      "state": "WA",
      "source": "fuelwatch",
      "product": "diesel",
      "brand": "Reddy Express",
      "name": "Shell Reddy Express Casuarina",
      "location": "BERTRAM",
      "lat": -32.232326,
      "lng": 115.848215,
      "price": 297.5
    },
    {
      "id": "wa:BENTLEY:Shell Reddy Express Bentley:diesel",
      "state": "WA",
      "source": "fuelwatch",
      "product": "diesel",
      "brand": "Reddy Express",
      "name": "Shell Reddy Express Bentley",
      "location": "BENTLEY",
      "lat": -32.000633,
      "lng": 115.918698,
      "price": 297.5
    },
    {
      "id": "wa:BEELIAR:Shell Reddy Express Beeliar:diesel",
      "state": "WA",
      "source": "fuelwatch",
      "product": "diesel",
      "brand": "Reddy Express",
      "name": "Shell Reddy Express Beeliar",
      "location": "BEELIAR",
      "lat": -32.128112,
      "lng": 115.798736,
      "price": 297.5
    },
    {
      "id": "wa:MAHOMETS FLATS:Shell Reddy Express Tarcoola:diesel",
      "state": "WA",
      "source": "fuelwatch",
      "product": "diesel",
      "brand": "Reddy Express",
      "name": "Shell Reddy Express Tarcoola",
      "location": "MAHOMETS FLATS",
      "lat": -28.791355,
      "lng": 114.616223,
      "price": 297.5
    },
    {
      "id": "wa:WANNEROO:Shell Reddy Express Wanneroo Pearsall:diesel",
      "state": "WA",
      "source": "fuelwatch",
      "product": "diesel",
      "brand": "Reddy Express",
      "name": "Shell Reddy Express Wanneroo Pearsall",
      "location": "WANNEROO",
      "lat": -31.780031,
      "lng": 115.808184,
      "price": 297.5
    },
    {
      "id": "wa:WONTHELLA:Shell Reddy Express Wonthella:diesel",
      "state": "WA",
      "source": "fuelwatch",
      "product": "diesel",
      "brand": "Reddy Express",
      "name": "Shell Reddy Express Wonthella",
      "location": "WONTHELLA",
      "lat": -28.76928,
      "lng": 114.624398,
      "price": 297.5
    },
    {
      "id": "wa:MORLEY:Solo Morley:diesel",
      "state": "WA",
      "source": "fuelwatch",
      "product": "diesel",
      "brand": "Solo",
      "name": "Solo Morley",
      "location": "MORLEY",
      "lat": -31.875866,
      "lng": 115.925309,
      "price": 297.9
    },
    {
      "id": "wa:RIVERTON:Solo Riverton:diesel",
      "state": "WA",
      "source": "fuelwatch",
      "product": "diesel",
      "brand": "Solo",
      "name": "Solo Riverton",
      "location": "RIVERTON",
      "lat": -32.038363,
      "lng": 115.896754,
      "price": 297.9
    },
    {
      "id": "wa:PERTH AIRPORT:United Perth Airport Truck Stop:diesel",
      "state": "WA",
      "source": "fuelwatch",
      "product": "diesel",
      "brand": "United",
      "name": "United Perth Airport Truck Stop",
      "location": "PERTH AIRPORT",
      "lat": -31.956366,
      "lng": 115.969749,
      "price": 298.5
    },
    {
      "id": "wa:PINJARRA:Vibe Pinjarra:diesel",
      "state": "WA",
      "source": "fuelwatch",
      "product": "diesel",
      "brand": "Vibe",
      "name": "Vibe Pinjarra",
      "location": "PINJARRA",
      "lat": -32.63094,
      "lng": 115.872555,
      "price": 298.7
    },
    {
      "id": "wa:WELSHPOOL:Vibe Welshpool:diesel",
      "state": "WA",
      "source": "fuelwatch",
      "product": "diesel",
      "brand": "Vibe",
      "name": "Vibe Welshpool",
      "location": "WELSHPOOL",
      "lat": -31.994327,
      "lng": 115.930681,
      "price": 298.7
    },
    {
      "id": "wa:ASCOT:Vibe Ascot:diesel",
      "state": "WA",
      "source": "fuelwatch",
      "product": "diesel",
      "brand": "Vibe",
      "name": "Vibe Ascot",
      "location": "ASCOT",
      "lat": -31.935968,
      "lng": 115.934361,
      "price": 298.7
    },
    {
      "id": "wa:ARMADALE:United Armadale:diesel",
      "state": "WA",
      "source": "fuelwatch",
      "product": "diesel",
      "brand": "United",
      "name": "United Armadale",
      "location": "ARMADALE",
      "lat": -32.161492,
      "lng": 116.0176,
      "price": 298.9
    },
    {
      "id": "wa:PADBURY:United Hepburn Heights:diesel",
      "state": "WA",
      "source": "fuelwatch",
      "product": "diesel",
      "brand": "United",
      "name": "United Hepburn Heights",
      "location": "PADBURY",
      "lat": -31.81889,
      "lng": 115.774096,
      "price": 298.9
    },
    {
      "id": "wa:OSBORNE PARK:United Osborne Park:diesel",
      "state": "WA",
      "source": "fuelwatch",
      "product": "diesel",
      "brand": "United",
      "name": "United Osborne Park",
      "location": "OSBORNE PARK",
      "lat": -31.904837,
      "lng": 115.80609,
      "price": 298.9
    },
    {
      "id": "wa:EAST VICTORIA PARK:United East Victoria Park:diesel",
      "state": "WA",
      "source": "fuelwatch",
      "product": "diesel",
      "brand": "United",
      "name": "United East Victoria Park",
      "location": "EAST VICTORIA PARK",
      "lat": -31.98781,
      "lng": 115.905402,
      "price": 298.9
    },
    {
      "id": "wa:BYFORD:United Byford:diesel",
      "state": "WA",
      "source": "fuelwatch",
      "product": "diesel",
      "brand": "United",
      "name": "United Byford",
      "location": "BYFORD",
      "lat": -32.2154436,
      "lng": 116.0080304,
      "price": 298.9
    },
    {
      "id": "wa:ANKETELL:United Anketell:diesel",
      "state": "WA",
      "source": "fuelwatch",
      "product": "diesel",
      "brand": "United",
      "name": "United Anketell",
      "location": "ANKETELL",
      "lat": -32.211351,
      "lng": 115.855637,
      "price": 298.9
    },
    {
      "id": "wa:VASSE:United Vasse Truck Stop:diesel",
      "state": "WA",
      "source": "fuelwatch",
      "product": "diesel",
      "brand": "United",
      "name": "United Vasse Truck Stop",
      "location": "VASSE",
      "lat": -33.684229,
      "lng": 115.23136,
      "price": 298.9
    },
    {
      "id": "wa:ANKETELL:United Anketell South:diesel",
      "state": "WA",
      "source": "fuelwatch",
      "product": "diesel",
      "brand": "United",
      "name": "United Anketell South",
      "location": "ANKETELL",
      "lat": -32.227802,
      "lng": 115.8558758,
      "price": 298.9
    },
    {
      "id": "wa:WEST PINJARRA:Ampol Foodary Forrest Highway North:diesel",
      "state": "WA",
      "source": "fuelwatch",
      "product": "diesel",
      "brand": "Ampol",
      "name": "Ampol Foodary Forrest Highway North",
      "location": "WEST PINJARRA",
      "lat": -32.685,
      "lng": 115.776,
      "price": 299.2
    },
    {
      "id": "wa:WEST PINJARRA:Ampol Foodary Forrest Highway South:diesel",
      "state": "WA",
      "source": "fuelwatch",
      "product": "diesel",
      "brand": "Ampol",
      "name": "Ampol Foodary Forrest Highway South",
      "location": "WEST PINJARRA",
      "lat": -32.686,
      "lng": 115.778,
      "price": 299.2
    },
    {
      "id": "wa:CANNING VALE:Vibe Canning Vale:diesel",
      "state": "WA",
      "source": "fuelwatch",
      "product": "diesel",
      "brand": "Vibe",
      "name": "Vibe Canning Vale",
      "location": "CANNING VALE",
      "lat": -32.075096,
      "lng": 115.922947,
      "price": 299.3
    },
    {
      "id": "wa:CAMILLO:Burk Camillo:diesel",
      "state": "WA",
      "source": "fuelwatch",
      "product": "diesel",
      "brand": "Burk",
      "name": "Burk Camillo",
      "location": "CAMILLO",
      "lat": -32.118652,
      "lng": 116.002556,
      "price": 299.3
    },
    {
      "id": "wa:WEST SWAN:Burk West Swan:diesel",
      "state": "WA",
      "source": "fuelwatch",
      "product": "diesel",
      "brand": "Burk",
      "name": "Burk West Swan",
      "location": "WEST SWAN",
      "lat": -31.839036,
      "lng": 115.990655,
      "price": 299.3
    },
    {
      "id": "wa:BROADWATER:Burk Broadwater:diesel",
      "state": "WA",
      "source": "fuelwatch",
      "product": "diesel",
      "brand": "Burk",
      "name": "Burk Broadwater",
      "location": "BROADWATER",
      "lat": -33.659722,
      "lng": 115.279282,
      "price": 299.3
    },
    {
      "id": "wa:KALGOORLIE:Liberty Kalgoorlie:diesel",
      "state": "WA",
      "source": "fuelwatch",
      "product": "diesel",
      "brand": "Liberty",
      "name": "Liberty Kalgoorlie",
      "location": "KALGOORLIE",
      "lat": -30.752968,
      "lng": 121.475421,
      "price": 299.5
    },
    {
      "id": "wa:NICKOL:Liberty Karratha:diesel",
      "state": "WA",
      "source": "fuelwatch",
      "product": "diesel",
      "brand": "Liberty",
      "name": "Liberty Karratha",
      "location": "NICKOL",
      "lat": -20.746797,
      "lng": 116.808697,
      "price": 299.5
    },
    {
      "id": "wa:BULLSBROOK:Vibe Bullsbrook Northlink:diesel",
      "state": "WA",
      "source": "fuelwatch",
      "product": "diesel",
      "brand": "Vibe",
      "name": "Vibe Bullsbrook Northlink",
      "location": "BULLSBROOK",
      "lat": -31.654313,
      "lng": 115.974255,
      "price": 299.5
    },
    {
      "id": "wa:BYFORD:Vibe Byford:diesel",
      "state": "WA",
      "source": "fuelwatch",
      "product": "diesel",
      "brand": "Vibe",
      "name": "Vibe Byford",
      "location": "BYFORD",
      "lat": -32.221206,
      "lng": 116.009206,
      "price": 299.7
    },
    {
      "id": "wa:BEDFORD:Vibe Bedford:diesel",
      "state": "WA",
      "source": "fuelwatch",
      "product": "diesel",
      "brand": "Vibe",
      "name": "Vibe Bedford",
      "location": "BEDFORD",
      "lat": -31.9,
      "lng": 115.889257,
      "price": 299.7
    },
    {
      "id": "wa:BEECHBORO:Vibe Beechboro:diesel",
      "state": "WA",
      "source": "fuelwatch",
      "product": "diesel",
      "brand": "Vibe",
      "name": "Vibe Beechboro",
      "location": "BEECHBORO",
      "lat": -31.869,
      "lng": 115.924439,
      "price": 299.7
    },
    {
      "id": "wa:PIARA WATERS:Vibe Piara Waters:diesel",
      "state": "WA",
      "source": "fuelwatch",
      "product": "diesel",
      "brand": "Vibe",
      "name": "Vibe Piara Waters",
      "location": "PIARA WATERS",
      "lat": -32.146852,
      "lng": 115.922099,
      "price": 299.7
    },
    {
      "id": "wa:BINNINGUP:Ampol Binningup:diesel",
      "state": "WA",
      "source": "fuelwatch",
      "product": "diesel",
      "brand": "Ampol",
      "name": "Ampol Binningup",
      "location": "BINNINGUP",
      "lat": -33.149621,
      "lng": 115.688353,
      "price": 299.9
    },
    {
      "id": "wa:KEWDALE:United Kewdale Truck Stop:diesel",
      "state": "WA",
      "source": "fuelwatch",
      "product": "diesel",
      "brand": "United",
      "name": "United Kewdale Truck Stop",
      "location": "KEWDALE",
      "lat": -31.990047,
      "lng": 115.939258,
      "price": 299.9
    },
    {
      "id": "wa:COLLIE:Gull Collie:diesel",
      "state": "WA",
      "source": "fuelwatch",
      "product": "diesel",
      "brand": "Gull",
      "name": "Gull Collie",
      "location": "COLLIE",
      "lat": -33.359487,
      "lng": 116.150307,
      "price": 299.9
    },
    {
      "id": "wa:NORTHBRIDGE:United Northbridge:diesel",
      "state": "WA",
      "source": "fuelwatch",
      "product": "diesel",
      "brand": "United",
      "name": "United Northbridge",
      "location": "NORTHBRIDGE",
      "lat": -31.945612,
      "lng": 115.852438,
      "price": 299.9
    },
    {
      "id": "wa:ELLENBROOK:United Ellenbrook:diesel",
      "state": "WA",
      "source": "fuelwatch",
      "product": "diesel",
      "brand": "United",
      "name": "United Ellenbrook",
      "location": "ELLENBROOK",
      "lat": -31.77852,
      "lng": 115.96699,
      "price": 299.9
    },
    {
      "id": "wa:KEALY:Vibe Siesta Park:diesel",
      "state": "WA",
      "source": "fuelwatch",
      "product": "diesel",
      "brand": "Vibe",
      "name": "Vibe Siesta Park",
      "location": "KEALY",
      "lat": -33.655538,
      "lng": 115.220151,
      "price": 299.9
    },
    {
      "id": "wa:DENMARK:United Denmark:diesel",
      "state": "WA",
      "source": "fuelwatch",
      "product": "diesel",
      "brand": "United",
      "name": "United Denmark",
      "location": "DENMARK",
      "lat": -34.960883,
      "lng": 117.353996,
      "price": 299.9
    },
    {
      "id": "wa:SOUTH LAKE:United South Lake:diesel",
      "state": "WA",
      "source": "fuelwatch",
      "product": "diesel",
      "brand": "United",
      "name": "United South Lake",
      "location": "SOUTH LAKE",
      "lat": -32.111481,
      "lng": 115.838833,
      "price": 299.9
    },
    {
      "id": "wa:MANJIMUP:United Manjimup:diesel",
      "state": "WA",
      "source": "fuelwatch",
      "product": "diesel",
      "brand": "United",
      "name": "United Manjimup",
      "location": "MANJIMUP",
      "lat": -34.248114,
      "lng": 116.140913,
      "price": 299.9
    },
    {
      "id": "wa:HAMILTON HILL:Vibe Hamilton Hill:diesel",
      "state": "WA",
      "source": "fuelwatch",
      "product": "diesel",
      "brand": "Vibe",
      "name": "Vibe Hamilton Hill",
      "location": "HAMILTON HILL",
      "lat": -32.086143,
      "lng": 115.777233,
      "price": 299.9
    },
    {
      "id": "wa:PICTON:Ampol Picton Depot With Front:diesel",
      "state": "WA",
      "source": "fuelwatch",
      "product": "diesel",
      "brand": "Ampol",
      "name": "Ampol Picton Depot With Front",
      "location": "PICTON",
      "lat": -33.348833,
      "lng": 115.699093,
      "price": 299.9
    },
    {
      "id": "wa:COLLIE:Ampol Collie:diesel",
      "state": "WA",
      "source": "fuelwatch",
      "product": "diesel",
      "brand": "Ampol",
      "name": "Ampol Collie",
      "location": "COLLIE",
      "lat": -33.359719,
      "lng": 116.152771,
      "price": 299.9
    },
    {
      "id": "wa:WILLIAMS:Burk Williams:diesel",
      "state": "WA",
      "source": "fuelwatch",
      "product": "diesel",
      "brand": "Burk",
      "name": "Burk Williams",
      "location": "WILLIAMS",
      "lat": -33.029031,
      "lng": 116.879548,
      "price": 299.9
    },
    {
      "id": "wa:NAVAL BASE:Caltex Naval Base:diesel",
      "state": "WA",
      "source": "fuelwatch",
      "product": "diesel",
      "brand": "Caltex",
      "name": "Caltex Naval Base",
      "location": "NAVAL BASE",
      "lat": -32.206745,
      "lng": 115.784712,
      "price": 299.9
    },
    {
      "id": "wa:MEADOW SPRINGS:Ampol Foodary Lakelands:diesel",
      "state": "WA",
      "source": "fuelwatch",
      "product": "diesel",
      "brand": "Ampol",
      "name": "Ampol Foodary Lakelands",
      "location": "MEADOW SPRINGS",
      "lat": -32.479203,
      "lng": 115.757774,
      "price": 301.2
    },
    {
      "id": "wa:KEWDALE:Ampol Foodary Kewdale:diesel",
      "state": "WA",
      "source": "fuelwatch",
      "product": "diesel",
      "brand": "Ampol",
      "name": "Ampol Foodary Kewdale",
      "location": "KEWDALE",
      "lat": -31.98365,
      "lng": 115.955901,
      "price": 301.2
    },
    {
      "id": "wa:NARROGIN:BP Narrogin:diesel",
      "state": "WA",
      "source": "fuelwatch",
      "product": "diesel",
      "brand": "BP",
      "name": "BP Narrogin",
      "location": "NARROGIN",
      "lat": -32.9334,
      "lng": 117.178861,
      "price": 301.9
    },
    {
      "id": "wa:WEST END:BP Geraldton OPT:diesel",
      "state": "WA",
      "source": "fuelwatch",
      "product": "diesel",
      "brand": "BP",
      "name": "BP Geraldton OPT",
      "location": "WEST END",
      "lat": -28.783461,
      "lng": 114.595966,
      "price": 301.9
    },
    {
      "id": "wa:KINGSFORD:Ampol Foodary Carnarvon:diesel",
      "state": "WA",
      "source": "fuelwatch",
      "product": "diesel",
      "brand": "Ampol",
      "name": "Ampol Foodary Carnarvon",
      "location": "KINGSFORD",
      "lat": -24.862266,
      "lng": 113.701162,
      "price": 302.2
    },
    {
      "id": "wa:WITCHCLIFFE:Vibe Witchcliffe:diesel",
      "state": "WA",
      "source": "fuelwatch",
      "product": "diesel",
      "brand": "Vibe",
      "name": "Vibe Witchcliffe",
      "location": "WITCHCLIFFE",
      "lat": -34.026394,
      "lng": 115.100027,
      "price": 302.3
    },
    {
      "id": "wa:FORRESTDALE:Atlas Fuel Forrestdale:diesel",
      "state": "WA",
      "source": "fuelwatch",
      "product": "diesel",
      "brand": "Atlas",
      "name": "Atlas Fuel Forrestdale",
      "location": "FORRESTDALE",
      "lat": -32.147176,
      "lng": 115.937714,
      "price": 302.9
    },
    {
      "id": "wa:MOORA:BP Moora Depot:diesel",
      "state": "WA",
      "source": "fuelwatch",
      "product": "diesel",
      "brand": "BP",
      "name": "BP Moora Depot",
      "location": "MOORA",
      "lat": -30.635255,
      "lng": 116.008868,
      "price": 302.9
    },
    {
      "id": "wa:WEDGEFIELD:BP Wedgefield OPT:diesel",
      "state": "WA",
      "source": "fuelwatch",
      "product": "diesel",
      "brand": "BP",
      "name": "BP Wedgefield OPT",
      "location": "WEDGEFIELD",
      "lat": -20.375323,
      "lng": 118.596136,
      "price": 302.9
    },
    {
      "id": "wa:COWARAMUP:BP Cowaramup:diesel",
      "state": "WA",
      "source": "fuelwatch",
      "product": "diesel",
      "brand": "BP",
      "name": "BP Cowaramup",
      "location": "COWARAMUP",
      "lat": -33.855134,
      "lng": 115.100534,
      "price": 302.9
    },
    {
      "id": "wa:KWINANA BEACH:Atlas Fuel Kwinana:diesel",
      "state": "WA",
      "source": "fuelwatch",
      "product": "diesel",
      "brand": "Atlas",
      "name": "Atlas Fuel Kwinana",
      "location": "KWINANA BEACH",
      "lat": -32.235848,
      "lng": 115.780215,
      "price": 302.9
    },
    {
      "id": "wa:ASCOT:Atlas Fuel Ascot:diesel",
      "state": "WA",
      "source": "fuelwatch",
      "product": "diesel",
      "brand": "Atlas",
      "name": "Atlas Fuel Ascot",
      "location": "ASCOT",
      "lat": -31.925213,
      "lng": 115.951987,
      "price": 302.9
    },
    {
      "id": "wa:FORRESTFIELD:Atlas Fuel Forrestfield:diesel",
      "state": "WA",
      "source": "fuelwatch",
      "product": "diesel",
      "brand": "Atlas",
      "name": "Atlas Fuel Forrestfield",
      "location": "FORRESTFIELD",
      "lat": -31.988049,
      "lng": 116.008437,
      "price": 302.9
    },
    {
      "id": "wa:GOLDEN BAY:Atlas Fuel Golden Bay:diesel",
      "state": "WA",
      "source": "fuelwatch",
      "product": "diesel",
      "brand": "Atlas",
      "name": "Atlas Fuel Golden Bay",
      "location": "GOLDEN BAY",
      "lat": -32.42028,
      "lng": 115.760489,
      "price": 302.9
    },
    {
      "id": "wa:MANJIMUP:Dunning's Thompsons Garage:diesel",
      "state": "WA",
      "source": "fuelwatch",
      "product": "diesel",
      "brand": "Shell",
      "name": "Dunning's Thompsons Garage",
      "location": "MANJIMUP",
      "lat": -34.239259,
      "lng": 116.147427,
      "price": 303.5
    },
    {
      "id": "wa:PICTON:Dunning's Picton:diesel",
      "state": "WA",
      "source": "fuelwatch",
      "product": "diesel",
      "brand": "Shell",
      "name": "Dunning's Picton",
      "location": "PICTON",
      "lat": -33.351434,
      "lng": 115.69075,
      "price": 303.5
    },
    {
      "id": "wa:MANJIMUP:Dunning's Manjimup:diesel",
      "state": "WA",
      "source": "fuelwatch",
      "product": "diesel",
      "brand": "Dunning's",
      "name": "Dunning's Manjimup",
      "location": "MANJIMUP",
      "lat": -34.261143,
      "lng": 116.148679,
      "price": 303.5
    },
    {
      "id": "wa:FORRESTFIELD:Vibe Forrestfield:diesel",
      "state": "WA",
      "source": "fuelwatch",
      "product": "diesel",
      "brand": "Vibe",
      "name": "Vibe Forrestfield",
      "location": "FORRESTFIELD",
      "lat": -31.961356,
      "lng": 115.992227,
      "price": 303.7
    },
    {
      "id": "wa:EAST BUNBURY:Vibe Bunbury East:diesel",
      "state": "WA",
      "source": "fuelwatch",
      "product": "diesel",
      "brand": "Vibe",
      "name": "Vibe Bunbury East",
      "location": "EAST BUNBURY",
      "lat": -33.345646,
      "lng": 115.660229,
      "price": 303.7
    },
    {
      "id": "wa:HAMILTON HILL:United Hamilton Hill:diesel",
      "state": "WA",
      "source": "fuelwatch",
      "product": "diesel",
      "brand": "United",
      "name": "United Hamilton Hill",
      "location": "HAMILTON HILL",
      "lat": -32.074926,
      "lng": 115.780931,
      "price": 303.9
    },
    {
      "id": "wa:NORTHAM:Dunning's Northam:diesel",
      "state": "WA",
      "source": "fuelwatch",
      "product": "diesel",
      "brand": "Shell",
      "name": "Dunning's Northam",
      "location": "NORTHAM",
      "lat": -31.649776,
      "lng": 116.677064,
      "price": 303.9
    },
    {
      "id": "wa:NAVAL BASE:BP Naval Base:diesel",
      "state": "WA",
      "source": "fuelwatch",
      "product": "diesel",
      "brand": "BP",
      "name": "BP Naval Base",
      "location": "NAVAL BASE",
      "lat": -32.199892,
      "lng": 115.781843,
      "price": 303.9
    },
    {
      "id": "wa:GLENFIELD:Caltex Glenfield:diesel",
      "state": "WA",
      "source": "fuelwatch",
      "product": "diesel",
      "brand": "Caltex",
      "name": "Caltex Glenfield",
      "location": "GLENFIELD",
      "lat": -28.671423,
      "lng": 114.622043,
      "price": 303.9
    },
    {
      "id": "wa:BALDIVIS:Petro Fuels Baldivis:diesel",
      "state": "WA",
      "source": "fuelwatch",
      "product": "diesel",
      "brand": "Petro Fuels",
      "name": "Petro Fuels Baldivis",
      "location": "BALDIVIS",
      "lat": -32.309663,
      "lng": 115.796699,
      "price": 303.9
    },
    {
      "id": "wa:BUSSELTON:Geographe Petroleum:diesel",
      "state": "WA",
      "source": "fuelwatch",
      "product": "diesel",
      "brand": "Liberty",
      "name": "Geographe Petroleum",
      "location": "BUSSELTON",
      "lat": -33.662853,
      "lng": 115.348585,
      "price": 303.9
    },
    {
      "id": "wa:COOLGARDIE:Ampol Foodary Coolgardie:diesel",
      "state": "WA",
      "source": "fuelwatch",
      "product": "diesel",
      "brand": "Ampol",
      "name": "Ampol Foodary Coolgardie",
      "location": "COOLGARDIE",
      "lat": -30.954263,
      "lng": 121.159033,
      "price": 304.2
    },
    {
      "id": "wa:WEDGEFIELD:Ampol Wedgefield Diesel Stop:diesel",
      "state": "WA",
      "source": "fuelwatch",
      "product": "diesel",
      "brand": "Ampol",
      "name": "Ampol Wedgefield Diesel Stop",
      "location": "WEDGEFIELD",
      "lat": -20.380839,
      "lng": 118.591282,
      "price": 304.2
    },
    {
      "id": "wa:KARRATHA INDUSTRIAL ESTATE:Ampol Karratha Diesel Stop:diesel",
      "state": "WA",
      "source": "fuelwatch",
      "product": "diesel",
      "brand": "Ampol",
      "name": "Ampol Karratha Diesel Stop",
      "location": "KARRATHA INDUSTRIAL ESTATE",
      "lat": -20.775089,
      "lng": 116.868642,
      "price": 304.2
    },
    {
      "id": "wa:OSBORNE PARK:Vibe Osborne Park:diesel",
      "state": "WA",
      "source": "fuelwatch",
      "product": "diesel",
      "brand": "Vibe",
      "name": "Vibe Osborne Park",
      "location": "OSBORNE PARK",
      "lat": -31.90631,
      "lng": 115.813744,
      "price": 304.5
    },
    {
      "id": "wa:MEEKATHARRA:Shell Reddy Express Meekatharra Roadhouse:diesel",
      "state": "WA",
      "source": "fuelwatch",
      "product": "diesel",
      "brand": "Reddy Express",
      "name": "Shell Reddy Express Meekatharra Roadhouse",
      "location": "MEEKATHARRA",
      "lat": -26.598382,
      "lng": 118.491349,
      "price": 304.5
    },
    {
      "id": "wa:PORT HEDLAND:Shell Reddy Express Port Hedland:diesel",
      "state": "WA",
      "source": "fuelwatch",
      "product": "diesel",
      "brand": "Reddy Express",
      "name": "Shell Reddy Express Port Hedland",
      "location": "PORT HEDLAND",
      "lat": -20.311786,
      "lng": 118.606193,
      "price": 304.5
    },
    {
      "id": "wa:WEDGEFIELD:Shell Reddy Express South Hedland Roadhouse:diesel",
      "state": "WA",
      "source": "fuelwatch",
      "product": "diesel",
      "brand": "Reddy Express",
      "name": "Shell Reddy Express South Hedland Roadhouse",
      "location": "WEDGEFIELD",
      "lat": -20.373797,
      "lng": 118.607282,
      "price": 304.5
    },
    {
      "id": "wa:KUNUNURRA:Shell Reddy Express Kununurra Roadhouse:diesel",
      "state": "WA",
      "source": "fuelwatch",
      "product": "diesel",
      "brand": "Reddy Express",
      "name": "Shell Reddy Express Kununurra Roadhouse",
      "location": "KUNUNURRA",
      "lat": -15.780723,
      "lng": 128.731886,
      "price": 304.5
    },
    {
      "id": "wa:STOVE HILL:Shell Reddy Express Karratha Travel &amp; Truck:diesel",
      "state": "WA",
      "source": "fuelwatch",
      "product": "diesel",
      "brand": "Reddy Express",
      "name": "Shell Reddy Express Karratha Travel &amp; Truck",
      "location": "STOVE HILL",
      "lat": -20.794671,
      "lng": 116.777474,
      "price": 304.5
    },
    {
      "id": "wa:KARRATHA:Shell Reddy Express Karratha:diesel",
      "state": "WA",
      "source": "fuelwatch",
      "product": "diesel",
      "brand": "Reddy Express",
      "name": "Shell Reddy Express Karratha",
      "location": "KARRATHA",
      "lat": -20.735525,
      "lng": 116.849126,
      "price": 304.5
    },
    {
      "id": "wa:DAMPIER:Shell Reddy Express Dampier:diesel",
      "state": "WA",
      "source": "fuelwatch",
      "product": "diesel",
      "brand": "Reddy Express",
      "name": "Shell Reddy Express Dampier",
      "location": "DAMPIER",
      "lat": -20.665198,
      "lng": 116.706964,
      "price": 304.5
    },
    {
      "id": "wa:BOULDER:Shell Reddy Express Boulder:diesel",
      "state": "WA",
      "source": "fuelwatch",
      "product": "diesel",
      "brand": "Reddy Express",
      "name": "Shell Reddy Express Boulder",
      "location": "BOULDER",
      "lat": -30.767542,
      "lng": 121.484457,
      "price": 304.5
    },
    {
      "id": "wa:ESPERANCE:Shell Reddy Express Esperance:diesel",
      "state": "WA",
      "source": "fuelwatch",
      "product": "diesel",
      "brand": "Reddy Express",
      "name": "Shell Reddy Express Esperance",
      "location": "ESPERANCE",
      "lat": -33.861134,
      "lng": 121.890607,
      "price": 304.5
    },
    {
      "id": "wa:LEDA:United Leda:diesel",
      "state": "WA",
      "source": "fuelwatch",
      "product": "diesel",
      "brand": "United",
      "name": "United Leda",
      "location": "LEDA",
      "lat": -32.260187,
      "lng": 115.806552,
      "price": 304.9
    },
    {
      "id": "wa:MIDVALE:BP 2go Morrison Road:diesel",
      "state": "WA",
      "source": "fuelwatch",
      "product": "diesel",
      "brand": "BP",
      "name": "BP 2go Morrison Road",
      "location": "MIDVALE",
      "lat": -31.886395,
      "lng": 116.030977,
      "price": 304.9
    },
    {
      "id": "wa:MYAREE:United Myaree:diesel",
      "state": "WA",
      "source": "fuelwatch",
      "product": "diesel",
      "brand": "United",
      "name": "United Myaree",
      "location": "MYAREE",
      "lat": -32.046212,
      "lng": 115.812611,
      "price": 304.9
    },
    {
      "id": "wa:KAMBALDA EAST:BP Kambalda:diesel",
      "state": "WA",
      "source": "fuelwatch",
      "product": "diesel",
      "brand": "BP",
      "name": "BP Kambalda",
      "location": "KAMBALDA EAST",
      "lat": -31.198448,
      "lng": 121.651811,
      "price": 304.9
    },
    {
      "id": "wa:CANNING VALE:BP Canning Vale OPT:diesel",
      "state": "WA",
      "source": "fuelwatch",
      "product": "diesel",
      "brand": "BP",
      "name": "BP Canning Vale OPT",
      "location": "CANNING VALE",
      "lat": -32.059609,
      "lng": 115.930743,
      "price": 304.9
    },
    {
      "id": "wa:REGANS FORD:Windmill Roadhouse:diesel",
      "state": "WA",
      "source": "fuelwatch",
      "product": "diesel",
      "brand": "Liberty",
      "name": "Windmill Roadhouse",
      "location": "REGANS FORD",
      "lat": -30.983045,
      "lng": 115.702039,
      "price": 304.9
    },
    {
      "id": "wa:BROWN RANGE:BP Carnarvon:diesel",
      "state": "WA",
      "source": "fuelwatch",
      "product": "diesel",
      "brand": "BP",
      "name": "BP Carnarvon",
      "location": "BROWN RANGE",
      "lat": -24.862096,
      "lng": 113.712947,
      "price": 304.9
    },
    {
      "id": "wa:REDCLIFFE:NightOwl Shell Redcliffe:diesel",
      "state": "WA",
      "source": "fuelwatch",
      "product": "diesel",
      "brand": "Shell",
      "name": "NightOwl Shell Redcliffe",
      "location": "REDCLIFFE",
      "lat": -31.929508,
      "lng": 115.945947,
      "price": 304.9
    },
    {
      "id": "wa:MADDINGTON:NightOwl Shell Maddington:diesel",
      "state": "WA",
      "source": "fuelwatch",
      "product": "diesel",
      "brand": "Shell",
      "name": "NightOwl Shell Maddington",
      "location": "MADDINGTON",
      "lat": -32.045398,
      "lng": 115.988733,
      "price": 304.9
    },
    {
      "id": "wa:RAVENSWOOD:NightOwl Shell Ravenswood:diesel",
      "state": "WA",
      "source": "fuelwatch",
      "product": "diesel",
      "brand": "Shell",
      "name": "NightOwl Shell Ravenswood",
      "location": "RAVENSWOOD",
      "lat": -32.608301,
      "lng": 115.844974,
      "price": 304.9
    },
    {
      "id": "wa:BELLEVUE:NightOwl Shell Bellevue:diesel",
      "state": "WA",
      "source": "fuelwatch",
      "product": "diesel",
      "brand": "Shell",
      "name": "NightOwl Shell Bellevue",
      "location": "BELLEVUE",
      "lat": -31.895576,
      "lng": 116.032806,
      "price": 304.9
    },
    {
      "id": "wa:BIBRA LAKE:United Bibra Lake:diesel",
      "state": "WA",
      "source": "fuelwatch",
      "product": "diesel",
      "brand": "United",
      "name": "United Bibra Lake",
      "location": "BIBRA LAKE",
      "lat": -32.093798,
      "lng": 115.802588,
      "price": 304.9
    },
    {
      "id": "wa:WONTHELLA:Atlas Fuel Geraldton:diesel",
      "state": "WA",
      "source": "fuelwatch",
      "product": "diesel",
      "brand": "Atlas",
      "name": "Atlas Fuel Geraldton",
      "location": "WONTHELLA",
      "lat": -28.759596,
      "lng": 114.625109,
      "price": 304.9
    },
    {
      "id": "wa:WEDGEFIELD:Dunning's Wedgefield:diesel",
      "state": "WA",
      "source": "fuelwatch",
      "product": "diesel",
      "brand": "Shell",
      "name": "Dunning's Wedgefield",
      "location": "WEDGEFIELD",
      "lat": -20.37681,
      "lng": 118.59805,
      "price": 305.5
    },
    {
      "id": "wa:KARRATHA:Dunning's Karratha:diesel",
      "state": "WA",
      "source": "fuelwatch",
      "product": "diesel",
      "brand": "Liberty",
      "name": "Dunning's Karratha",
      "location": "KARRATHA",
      "lat": -20.7328332,
      "lng": 116.8434104,
      "price": 305.5
    },
    {
      "id": "wa:BROADWATER:Vibe Broadwater:diesel",
      "state": "WA",
      "source": "fuelwatch",
      "product": "diesel",
      "brand": "Vibe",
      "name": "Vibe Broadwater",
      "location": "BROADWATER",
      "lat": -33.659283,
      "lng": 115.298097,
      "price": 305.7
    },
    {
      "id": "wa:PORT KENNEDY:Vibe Port Kennedy:diesel",
      "state": "WA",
      "source": "fuelwatch",
      "product": "diesel",
      "brand": "Vibe",
      "name": "Vibe Port Kennedy",
      "location": "PORT KENNEDY",
      "lat": -32.371578,
      "lng": 115.762171,
      "price": 305.7
    },
    {
      "id": "wa:DJUGUN:Broome Discount Diesel:diesel",
      "state": "WA",
      "source": "fuelwatch",
      "product": "diesel",
      "brand": "Broome Diesel",
      "name": "Broome Discount Diesel",
      "location": "DJUGUN",
      "lat": -17.952997,
      "lng": 122.236176,
      "price": 305.9
    },
    {
      "id": "wa:LEXIA:United Lexia Truck Stop:diesel",
      "state": "WA",
      "source": "fuelwatch",
      "product": "diesel",
      "brand": "United",
      "name": "United Lexia Truck Stop",
      "location": "LEXIA",
      "lat": -31.795189,
      "lng": 115.899559,
      "price": 305.9
    },
    {
      "id": "wa:THE LAKES:BP The Lakes Roadhouse:diesel",
      "state": "WA",
      "source": "fuelwatch",
      "product": "diesel",
      "brand": "BP",
      "name": "BP The Lakes Roadhouse",
      "location": "THE LAKES",
      "lat": -31.875285,
      "lng": 116.320602,
      "price": 305.9
    },
    {
      "id": "wa:KUNUNURRA:BP Kununurra Depot (Recharge Petroleum):diesel",
      "state": "WA",
      "source": "fuelwatch",
      "product": "diesel",
      "brand": "BP",
      "name": "BP Kununurra Depot (Recharge Petroleum)",
      "location": "KUNUNURRA",
      "lat": -15.795938,
      "lng": 128.765977,
      "price": 305.9
    },
    {
      "id": "wa:SOUTHERN RIVER:United Southern River:diesel",
      "state": "WA",
      "source": "fuelwatch",
      "product": "diesel",
      "brand": "United",
      "name": "United Southern River",
      "location": "SOUTHERN RIVER",
      "lat": -32.121136,
      "lng": 115.954582,
      "price": 305.9
    },
    {
      "id": "wa:JARRAHDALE:Atlas Fuel Jarrahdale:diesel",
      "state": "WA",
      "source": "fuelwatch",
      "product": "diesel",
      "brand": "Atlas",
      "name": "Atlas Fuel Jarrahdale",
      "location": "JARRAHDALE",
      "lat": -32.308753,
      "lng": 116.006734,
      "price": 305.9
    },
    {
      "id": "wa:BEDFORDALE:Caltex Bedfordale:diesel",
      "state": "WA",
      "source": "fuelwatch",
      "product": "diesel",
      "brand": "Caltex",
      "name": "Caltex Bedfordale",
      "location": "BEDFORDALE",
      "lat": -32.18201,
      "lng": 116.07568,
      "price": 305.9
    },
    {
      "id": "wa:SAWYERS VALLEY:Atlas Fuel Sawyers Valley:diesel",
      "state": "WA",
      "source": "fuelwatch",
      "product": "diesel",
      "brand": "Atlas",
      "name": "Atlas Fuel Sawyers Valley",
      "location": "SAWYERS VALLEY",
      "lat": -31.903211,
      "lng": 116.205032,
      "price": 305.9
    },
    {
      "id": "wa:PORT HEDLAND:Caltex South Hedland:diesel",
      "state": "WA",
      "source": "fuelwatch",
      "product": "diesel",
      "brand": "Caltex",
      "name": "Caltex South Hedland",
      "location": "PORT HEDLAND",
      "lat": -20.371697,
      "lng": 118.611974,
      "price": 305.9
    },
    {
      "id": "wa:WANNEROO:Atlas Fuel Wanneroo:diesel",
      "state": "WA",
      "source": "fuelwatch",
      "product": "diesel",
      "brand": "Atlas",
      "name": "Atlas Fuel Wanneroo",
      "location": "WANNEROO",
      "lat": -31.752615,
      "lng": 115.803432,
      "price": 305.9
    },
    {
      "id": "wa:HERNE HILL:Herne Hill General Store:diesel",
      "state": "WA",
      "source": "fuelwatch",
      "product": "diesel",
      "brand": "Vibe",
      "name": "Herne Hill General Store",
      "location": "HERNE HILL",
      "lat": -31.825036,
      "lng": 116.016716,
      "price": 305.9
    },
    {
      "id": "wa:WESTMINSTER:Petro Fuels Westminster:diesel",
      "state": "WA",
      "source": "fuelwatch",
      "product": "diesel",
      "brand": "Petro Fuels",
      "name": "Petro Fuels Westminster",
      "location": "WESTMINSTER",
      "lat": -31.867713,
      "lng": 115.829807,
      "price": 306.5
    },
    {
      "id": "wa:CAVERSHAM:Atlas Fuel Caversham:diesel",
      "state": "WA",
      "source": "fuelwatch",
      "product": "diesel",
      "brand": "Atlas",
      "name": "Atlas Fuel Caversham",
      "location": "CAVERSHAM",
      "lat": -31.8719994,
      "lng": 115.9599162,
      "price": 306.8
    },
    {
      "id": "wa:DIANELLA:OMG Metro Dianella:diesel",
      "state": "WA",
      "source": "fuelwatch",
      "product": "diesel",
      "brand": "OMG Metro",
      "name": "OMG Metro Dianella",
      "location": "DIANELLA",
      "lat": -31.906435,
      "lng": 115.881917,
      "price": 306.9
    },
    {
      "id": "wa:KEWDALE:BP Kewdale:diesel",
      "state": "WA",
      "source": "fuelwatch",
      "product": "diesel",
      "brand": "BP",
      "name": "BP Kewdale",
      "location": "KEWDALE",
      "lat": -31.981726,
      "lng": 115.975223,
      "price": 306.9
    },
    {
      "id": "wa:FORRESTFIELD:FastFuel 24/7:diesel",
      "state": "WA",
      "source": "fuelwatch",
      "product": "diesel",
      "brand": "FastFuel 24/7",
      "name": "FastFuel 24/7",
      "location": "FORRESTFIELD",
      "lat": -31.995465,
      "lng": 116.01183,
      "price": 306.9
    },
    {
      "id": "wa:BALDIVIS:BP Baldivis Northbound Travel Centre:diesel",
      "state": "WA",
      "source": "fuelwatch",
      "product": "diesel",
      "brand": "BP",
      "name": "BP Baldivis Northbound Travel Centre",
      "location": "BALDIVIS",
      "lat": -32.309137,
      "lng": 115.830397,
      "price": 306.9
    },
    {
      "id": "wa:BALDIVIS:BP Baldivis Southbound Travel Centre:diesel",
      "state": "WA",
      "source": "fuelwatch",
      "product": "diesel",
      "brand": "BP",
      "name": "BP Baldivis Southbound Travel Centre",
      "location": "BALDIVIS",
      "lat": -32.309281,
      "lng": 115.83277,
      "price": 306.9
    },
    {
      "id": "wa:NEWMAN:BP Newman South:diesel",
      "state": "WA",
      "source": "fuelwatch",
      "product": "diesel",
      "brand": "BP",
      "name": "BP Newman South",
      "location": "NEWMAN",
      "lat": -23.453756,
      "lng": 119.797495,
      "price": 306.9
    },
    {
      "id": "wa:KEWDALE:BP Welshpool:diesel",
      "state": "WA",
      "source": "fuelwatch",
      "product": "diesel",
      "brand": "BP",
      "name": "BP Welshpool",
      "location": "KEWDALE",
      "lat": -31.986384,
      "lng": 115.936881,
      "price": 306.9
    },
    {
      "id": "wa:WATTLE GROVE:BP Kenwick:diesel",
      "state": "WA",
      "source": "fuelwatch",
      "product": "diesel",
      "brand": "BP",
      "name": "BP Kenwick",
      "location": "WATTLE GROVE",
      "lat": -32.005588,
      "lng": 115.980565,
      "price": 306.9
    },
    {
      "id": "wa:MALAGA:BP Malaga:diesel",
      "state": "WA",
      "source": "fuelwatch",
      "product": "diesel",
      "brand": "BP",
      "name": "BP Malaga",
      "location": "MALAGA",
      "lat": -31.862067,
      "lng": 115.894445,
      "price": 306.9
    },
    {
      "id": "wa:SEVILLE GROVE:Petro Fuels Seville Grove:diesel",
      "state": "WA",
      "source": "fuelwatch",
      "product": "diesel",
      "brand": "Petro Fuels",
      "name": "Petro Fuels Seville Grove",
      "location": "SEVILLE GROVE",
      "lat": -32.136834,
      "lng": 115.980305,
      "price": 306.9
    },
    {
      "id": "wa:MARGARET RIVER:Geographe Petroleum Margaret River:diesel",
      "state": "WA",
      "source": "fuelwatch",
      "product": "diesel",
      "brand": "Liberty",
      "name": "Geographe Petroleum Margaret River",
      "location": "MARGARET RIVER",
      "lat": -33.96608,
      "lng": 115.071736,
      "price": 307.5
    },
    {
      "id": "wa:KALGOORLIE:BP Golden Gate:diesel",
      "state": "WA",
      "source": "fuelwatch",
      "product": "diesel",
      "brand": "BP",
      "name": "BP Golden Gate",
      "location": "KALGOORLIE",
      "lat": -30.752976,
      "lng": 121.466012,
      "price": 307.9
    },
    {
      "id": "wa:YILKARI:BP Kalgoorlie-Boulder Truckstop:diesel",
      "state": "WA",
      "source": "fuelwatch",
      "product": "diesel",
      "brand": "BP",
      "name": "BP Kalgoorlie-Boulder Truckstop",
      "location": "YILKARI",
      "lat": -30.806356,
      "lng": 121.490051,
      "price": 307.9
    },
    {
      "id": "wa:GAP RIDGE:BP Karratha West:diesel",
      "state": "WA",
      "source": "fuelwatch",
      "product": "diesel",
      "brand": "BP",
      "name": "BP Karratha West",
      "location": "GAP RIDGE",
      "lat": -20.750655,
      "lng": 116.767582,
      "price": 307.9
    },
    {
      "id": "wa:NORTHAM:BP Northam OPT:diesel",
      "state": "WA",
      "source": "fuelwatch",
      "product": "diesel",
      "brand": "BP",
      "name": "BP Northam OPT",
      "location": "NORTHAM",
      "lat": -31.649634,
      "lng": 116.683921,
      "price": 307.9
    },
    {
      "id": "wa:NORSEMAN:Ampol Foodary Norseman:diesel",
      "state": "WA",
      "source": "fuelwatch",
      "product": "diesel",
      "brand": "Ampol",
      "name": "Ampol Foodary Norseman",
      "location": "NORSEMAN",
      "lat": -32.189702,
      "lng": 121.778466,
      "price": 308.2
    },
    {
      "id": "wa:NOLLAMARA:Vibe Nollamara:diesel",
      "state": "WA",
      "source": "fuelwatch",
      "product": "diesel",
      "brand": "Vibe",
      "name": "Vibe Nollamara",
      "location": "NOLLAMARA",
      "lat": -31.880514,
      "lng": 115.840339,
      "price": 308.3
    },
    {
      "id": "wa:NORTH PERTH:Vibe Charles St:diesel",
      "state": "WA",
      "source": "fuelwatch",
      "product": "diesel",
      "brand": "Vibe",
      "name": "Vibe Charles St",
      "location": "NORTH PERTH",
      "lat": -31.922312,
      "lng": 115.850264,
      "price": 308.3
    },
    {
      "id": "wa:TUART HILL:Better Choice Tuart Hill:diesel",
      "state": "WA",
      "source": "fuelwatch",
      "product": "diesel",
      "brand": "Better Choice",
      "name": "Better Choice Tuart Hill",
      "location": "TUART HILL",
      "lat": -31.897268,
      "lng": 115.841447,
      "price": 308.5
    },
    {
      "id": "wa:MALAGA:Better Choice Malaga:diesel",
      "state": "WA",
      "source": "fuelwatch",
      "product": "diesel",
      "brand": "Better Choice",
      "name": "Better Choice Malaga",
      "location": "MALAGA",
      "lat": -31.855136,
      "lng": 115.878229,
      "price": 308.5
    },
    {
      "id": "wa:BROOME:Shell Reddy Express Broome:diesel",
      "state": "WA",
      "source": "fuelwatch",
      "product": "diesel",
      "brand": "Reddy Express",
      "name": "Shell Reddy Express Broome",
      "location": "BROOME",
      "lat": -17.955401,
      "lng": 122.241773,
      "price": 308.5
    },
    {
      "id": "wa:FITZROY CROSSING:Shell Reddy Express Fitzroy Crossing Roadhouse:diesel",
      "state": "WA",
      "source": "fuelwatch",
      "product": "diesel",
      "brand": "Reddy Express",
      "name": "Shell Reddy Express Fitzroy Crossing Roadhouse",
      "location": "FITZROY CROSSING",
      "lat": -18.197983,
      "lng": 125.568129,
      "price": 308.5
    },
    {
      "id": "wa:SPEARWOOD:Vibe Spearwood:diesel",
      "state": "WA",
      "source": "fuelwatch",
      "product": "diesel",
      "brand": "Vibe",
      "name": "Vibe Spearwood",
      "location": "SPEARWOOD",
      "lat": -32.105033,
      "lng": 115.782419,
      "price": 308.7
    },
    {
      "id": "wa:YANGEBUP:OMG Metro Yangebup:diesel",
      "state": "WA",
      "source": "fuelwatch",
      "product": "diesel",
      "brand": "OMG Metro",
      "name": "OMG Metro Yangebup",
      "location": "YANGEBUP",
      "lat": -32.116891,
      "lng": 115.795446,
      "price": 308.9
    },
    {
      "id": "wa:FITZROY CROSSING:Fitzroy River Lodge:diesel",
      "state": "WA",
      "source": "fuelwatch",
      "product": "diesel",
      "brand": "Independent",
      "name": "Fitzroy River Lodge",
      "location": "FITZROY CROSSING",
      "lat": -18.210729,
      "lng": 125.581717,
      "price": 308.9
    },
    {
      "id": "wa:MALABAINE:Atlas Fresh Trading Co Northam:diesel",
      "state": "WA",
      "source": "fuelwatch",
      "product": "diesel",
      "brand": "Atlas",
      "name": "Atlas Fresh Trading Co Northam",
      "location": "MALABAINE",
      "lat": -31.635198,
      "lng": 116.71624,
      "price": 309.4
    },
    {
      "id": "wa:MINYIRR:Dunning's Broome Depot:diesel",
      "state": "WA",
      "source": "fuelwatch",
      "product": "diesel",
      "brand": "Dunning's",
      "name": "Dunning's Broome Depot",
      "location": "MINYIRR",
      "lat": -17.988714,
      "lng": 122.201627,
      "price": 309.5
    },
    {
      "id": "wa:MIDVALE:Atlas Fuel Midvale:diesel",
      "state": "WA",
      "source": "fuelwatch",
      "product": "diesel",
      "brand": "Atlas",
      "name": "Atlas Fuel Midvale",
      "location": "MIDVALE",
      "lat": -31.885583,
      "lng": 116.030335,
      "price": 309.5
    },
    {
      "id": "wa:EDGEWATER:Better Choice Edgewater:diesel",
      "state": "WA",
      "source": "fuelwatch",
      "product": "diesel",
      "brand": "Better Choice",
      "name": "Better Choice Edgewater",
      "location": "EDGEWATER",
      "lat": -31.772036,
      "lng": 115.789182,
      "price": 309.5
    },
    {
      "id": "wa:BROOME:Dunning's Broome:diesel",
      "state": "WA",
      "source": "fuelwatch",
      "product": "diesel",
      "brand": "Shell",
      "name": "Dunning's Broome",
      "location": "BROOME",
      "lat": -17.971221,
      "lng": 122.218093,
      "price": 309.5
    },
    {
      "id": "wa:CALISTA:Petro Fuels Calista:diesel",
      "state": "WA",
      "source": "fuelwatch",
      "product": "diesel",
      "brand": "Liberty",
      "name": "Petro Fuels Calista",
      "location": "CALISTA",
      "lat": -32.248776,
      "lng": 115.808019,
      "price": 309.5
    },
    {
      "id": "wa:SWAN VIEW:Petro Fuels Swan View:diesel",
      "state": "WA",
      "source": "fuelwatch",
      "product": "diesel",
      "brand": "Petro Fuels",
      "name": "Petro Fuels Swan View",
      "location": "SWAN VIEW",
      "lat": -31.885693,
      "lng": 116.042187,
      "price": 309.5
    },
    {
      "id": "wa:BASSENDEAN:Petro Fuels Bassendean:diesel",
      "state": "WA",
      "source": "fuelwatch",
      "product": "diesel",
      "brand": "Petro Fuels",
      "name": "Petro Fuels Bassendean",
      "location": "BASSENDEAN",
      "lat": -31.915476,
      "lng": 115.931768,
      "price": 309.5
    },
    {
      "id": "wa:KINGSFORD:Dunning's KCD Fuels:diesel",
      "state": "WA",
      "source": "fuelwatch",
      "product": "diesel",
      "brand": "Dunning's",
      "name": "Dunning's KCD Fuels",
      "location": "KINGSFORD",
      "lat": -24.865224,
      "lng": 113.694049,
      "price": 309.5
    },
    {
      "id": "wa:YORK:Gull York Roadhouse:diesel",
      "state": "WA",
      "source": "fuelwatch",
      "product": "diesel",
      "brand": "Gull",
      "name": "Gull York Roadhouse",
      "location": "YORK",
      "lat": -31.89332,
      "lng": 116.768037,
      "price": 309.7
    },
    {
      "id": "wa:COOLGARDIE:Vibe Coolgardie:diesel",
      "state": "WA",
      "source": "fuelwatch",
      "product": "diesel",
      "brand": "Vibe",
      "name": "Vibe Coolgardie",
      "location": "COOLGARDIE",
      "lat": -30.954992,
      "lng": 121.172477,
      "price": 309.7
    },
    {
      "id": "wa:SUBIACO:Vibe Subiaco:diesel",
      "state": "WA",
      "source": "fuelwatch",
      "product": "diesel",
      "brand": "Vibe",
      "name": "Vibe Subiaco",
      "location": "SUBIACO",
      "lat": -31.952307,
      "lng": 115.83115,
      "price": 309.7
    },
    {
      "id": "wa:MOUNT HELENA:Vibe Mt Helena:diesel",
      "state": "WA",
      "source": "fuelwatch",
      "product": "diesel",
      "brand": "Vibe",
      "name": "Vibe Mt Helena",
      "location": "MOUNT HELENA",
      "lat": -31.878494,
      "lng": 116.209053,
      "price": 309.7
    },
    {
      "id": "wa:BUNBURY:Vibe Bunbury Central:diesel",
      "state": "WA",
      "source": "fuelwatch",
      "product": "diesel",
      "brand": "Vibe",
      "name": "Vibe Bunbury Central",
      "location": "BUNBURY",
      "lat": -33.336043,
      "lng": 115.646957,
      "price": 309.7
    },
    {
      "id": "wa:UPPER SWAN:Vibe Upper Swan:diesel",
      "state": "WA",
      "source": "fuelwatch",
      "product": "diesel",
      "brand": "Vibe",
      "name": "Vibe Upper Swan",
      "location": "UPPER SWAN",
      "lat": -31.765846,
      "lng": 116.031763,
      "price": 309.7
    },
    {
      "id": "wa:WANNEROO:Vibe Wanneroo:diesel",
      "state": "WA",
      "source": "fuelwatch",
      "product": "diesel",
      "brand": "Vibe",
      "name": "Vibe Wanneroo",
      "location": "WANNEROO",
      "lat": -31.751382,
      "lng": 115.803426,
      "price": 309.7
    },
    {
      "id": "wa:KWINANA BEACH:Vibe Kwinana OPT:diesel",
      "state": "WA",
      "source": "fuelwatch",
      "product": "diesel",
      "brand": "Vibe",
      "name": "Vibe Kwinana OPT",
      "location": "KWINANA BEACH",
      "lat": -32.245503,
      "lng": 115.78259,
      "price": 309.7
    },
    {
      "id": "wa:JANDAKOT:Vibe Jandakot:diesel",
      "state": "WA",
      "source": "fuelwatch",
      "product": "diesel",
      "brand": "Vibe",
      "name": "Vibe Jandakot",
      "location": "JANDAKOT",
      "lat": -32.090758,
      "lng": 115.868846,
      "price": 309.7
    },
    {
      "id": "wa:GREENBUSHES:Greenbushes Roadhouse:diesel",
      "state": "WA",
      "source": "fuelwatch",
      "product": "diesel",
      "brand": "Phoenix",
      "name": "Greenbushes Roadhouse",
      "location": "GREENBUSHES",
      "lat": -33.848451,
      "lng": 116.059037,
      "price": 309.7
    },
    {
      "id": "wa:SOUTH BUNBURY:Vibe Bunbury South:diesel",
      "state": "WA",
      "source": "fuelwatch",
      "product": "diesel",
      "brand": "Vibe",
      "name": "Vibe Bunbury South",
      "location": "SOUTH BUNBURY",
      "lat": -33.351866,
      "lng": 115.641941,
      "price": 309.7
    },
    {
      "id": "wa:KALAMUNDA:Vibe Kalamunda:diesel",
      "state": "WA",
      "source": "fuelwatch",
      "product": "diesel",
      "brand": "Vibe",
      "name": "Vibe Kalamunda",
      "location": "KALAMUNDA",
      "lat": -31.97362,
      "lng": 116.059448,
      "price": 309.7
    },
    {
      "id": "wa:ALBANY:BP Allway:diesel",
      "state": "WA",
      "source": "fuelwatch",
      "product": "diesel",
      "brand": "BP",
      "name": "BP Allway",
      "location": "ALBANY",
      "lat": -35.020486,
      "lng": 117.881858,
      "price": 309.9
    },
    {
      "id": "wa:BASKERVILLE:BP Baskerville:diesel",
      "state": "WA",
      "source": "fuelwatch",
      "product": "diesel",
      "brand": "BP",
      "name": "BP Baskerville",
      "location": "BASKERVILLE",
      "lat": -31.797752,
      "lng": 116.021245,
      "price": 309.9
    },
    {
      "id": "wa:KOONDOOLA:BP Koondoola:diesel",
      "state": "WA",
      "source": "fuelwatch",
      "product": "diesel",
      "brand": "BP",
      "name": "BP Koondoola",
      "location": "KOONDOOLA",
      "lat": -31.841924,
      "lng": 115.858276,
      "price": 309.9
    },
    {
      "id": "wa:CABLE BEACH:United Broome:diesel",
      "state": "WA",
      "source": "fuelwatch",
      "product": "diesel",
      "brand": "United",
      "name": "United Broome",
      "location": "CABLE BEACH",
      "lat": -17.961207,
      "lng": 122.215105,
      "price": 309.9
    },
    {
      "id": "wa:DONGARA:BP Roadhouse Dongara:diesel",
      "state": "WA",
      "source": "fuelwatch",
      "product": "diesel",
      "brand": "BP",
      "name": "BP Roadhouse Dongara",
      "location": "DONGARA",
      "lat": -29.251818,
      "lng": 114.940463,
      "price": 309.9
    },
    {
      "id": "wa:WILLIAMS:BP Williams Roadhouse:diesel",
      "state": "WA",
      "source": "fuelwatch",
      "product": "diesel",
      "brand": "BP",
      "name": "BP Williams Roadhouse",
      "location": "WILLIAMS",
      "lat": -33.032295,
      "lng": 116.880129,
      "price": 309.9
    },
    {
      "id": "wa:BIBRA LAKE:BP Bibra Lake:diesel",
      "state": "WA",
      "source": "fuelwatch",
      "product": "diesel",
      "brand": "BP",
      "name": "BP Bibra Lake",
      "location": "BIBRA LAKE",
      "lat": -32.103888,
      "lng": 115.804171,
      "price": 309.9
    },
    {
      "id": "wa:CHADWICK:Harbour Rd Truckstop:diesel",
      "state": "WA",
      "source": "fuelwatch",
      "product": "diesel",
      "brand": "BP",
      "name": "Harbour Rd Truckstop",
      "location": "CHADWICK",
      "lat": -33.832171,
      "lng": 121.894287,
      "price": 309.9
    },
    {
      "id": "wa:DENMARK:BP Denmark:diesel",
      "state": "WA",
      "source": "fuelwatch",
      "product": "diesel",
      "brand": "BP",
      "name": "BP Denmark",
      "location": "DENMARK",
      "lat": -34.960484,
      "lng": 117.353598,
      "price": 309.9
    },
    {
      "id": "wa:FORRESTDALE:BP Forrestdale:diesel",
      "state": "WA",
      "source": "fuelwatch",
      "product": "diesel",
      "brand": "BP",
      "name": "BP Forrestdale",
      "location": "FORRESTDALE",
      "lat": -32.137312,
      "lng": 115.969456,
      "price": 309.9
    },
    {
      "id": "wa:EAST ROCKINGHAM:BP East Rockingham:diesel",
      "state": "WA",
      "source": "fuelwatch",
      "product": "diesel",
      "brand": "BP",
      "name": "BP East Rockingham",
      "location": "EAST ROCKINGHAM",
      "lat": -32.276459,
      "lng": 115.780512,
      "price": 309.9
    },
    {
      "id": "wa:KARNUP:Karnup Roadhouse:diesel",
      "state": "WA",
      "source": "fuelwatch",
      "product": "diesel",
      "brand": "BP",
      "name": "Karnup Roadhouse",
      "location": "KARNUP",
      "lat": -32.427429,
      "lng": 115.77467,
      "price": 309.9
    },
    {
      "id": "wa:WEST KALGOORLIE:Eagle West Kalgoorlie Truckstop:diesel",
      "state": "WA",
      "source": "fuelwatch",
      "product": "diesel",
      "brand": "Eagle",
      "name": "Eagle West Kalgoorlie Truckstop",
      "location": "WEST KALGOORLIE",
      "lat": -30.777107,
      "lng": 121.431253,
      "price": 309.9
    },
    {
      "id": "wa:MORGANTOWN:Dunning's Carnarvon:diesel",
      "state": "WA",
      "source": "fuelwatch",
      "product": "diesel",
      "brand": "Shell",
      "name": "Dunning's Carnarvon",
      "location": "MORGANTOWN",
      "lat": -24.877871,
      "lng": 113.660789,
      "price": 309.9
    },
    {
      "id": "wa:MADDINGTON:United Maddington Truck Stop:diesel",
      "state": "WA",
      "source": "fuelwatch",
      "product": "diesel",
      "brand": "United",
      "name": "United Maddington Truck Stop",
      "location": "MADDINGTON",
      "lat": -32.042356,
      "lng": 115.99131,
      "price": 309.9
    },
    {
      "id": "wa:MINYIRR:BP Broome Depot (Recharge Petroleum):diesel",
      "state": "WA",
      "source": "fuelwatch",
      "product": "diesel",
      "brand": "BP",
      "name": "BP Broome Depot (Recharge Petroleum)",
      "location": "MINYIRR",
      "lat": -17.992889,
      "lng": 122.204306,
      "price": 309.9
    },
    {
      "id": "wa:PORT HEDLAND:BP Port Hedland Boulevard:diesel",
      "state": "WA",
      "source": "fuelwatch",
      "product": "diesel",
      "brand": "BP",
      "name": "BP Port Hedland Boulevard",
      "location": "PORT HEDLAND",
      "lat": -20.311955,
      "lng": 118.607726,
      "price": 309.9
    },
    {
      "id": "wa:NEERABUP:Vibe Neerabup:diesel",
      "state": "WA",
      "source": "fuelwatch",
      "product": "diesel",
      "brand": "Vibe",
      "name": "Vibe Neerabup",
      "location": "NEERABUP",
      "lat": -31.686965,
      "lng": 115.783501,
      "price": 309.9
    },
    {
      "id": "wa:THORNLIE:Atlas Fuel Thornlie:diesel",
      "state": "WA",
      "source": "fuelwatch",
      "product": "diesel",
      "brand": "Atlas",
      "name": "Atlas Fuel Thornlie",
      "location": "THORNLIE",
      "lat": -32.061092,
      "lng": 115.939257,
      "price": 309.9
    },
    {
      "id": "wa:WELSHPOOL:Atlas Fuel Welshpool:diesel",
      "state": "WA",
      "source": "fuelwatch",
      "product": "diesel",
      "brand": "Atlas",
      "name": "Atlas Fuel Welshpool",
      "location": "WELSHPOOL",
      "lat": -31.993707,
      "lng": 115.919139,
      "price": 309.9
    },
    {
      "id": "wa:WEST KALGOORLIE:BP West Kalgoorlie:diesel",
      "state": "WA",
      "source": "fuelwatch",
      "product": "diesel",
      "brand": "BP",
      "name": "BP West Kalgoorlie",
      "location": "WEST KALGOORLIE",
      "lat": -30.785893,
      "lng": 121.433381,
      "price": 310.9
    },
    {
      "id": "wa:CHADWICK:WFG Shell Esperance OPT:diesel",
      "state": "WA",
      "source": "fuelwatch",
      "product": "diesel",
      "brand": "Shell",
      "name": "WFG Shell Esperance OPT",
      "location": "CHADWICK",
      "lat": -33.83235,
      "lng": 121.8937,
      "price": 310.9
    },
    {
      "id": "wa:NARROGIN:Atlas Fuel Narrogin:diesel",
      "state": "WA",
      "source": "fuelwatch",
      "product": "diesel",
      "brand": "Atlas",
      "name": "Atlas Fuel Narrogin",
      "location": "NARROGIN",
      "lat": -32.933261,
      "lng": 117.176675,
      "price": 311.9
    },
    {
      "id": "wa:CENTENNIAL PARK:Petro Fuels Albany:diesel",
      "state": "WA",
      "source": "fuelwatch",
      "product": "diesel",
      "brand": "Petro Fuels",
      "name": "Petro Fuels Albany",
      "location": "CENTENNIAL PARK",
      "lat": -35.009895,
      "lng": 117.870443,
      "price": 311.9
    },
    {
      "id": "wa:KARRAGULLEN:Petro Fuels Karragullen:diesel",
      "state": "WA",
      "source": "fuelwatch",
      "product": "diesel",
      "brand": "Petro Fuels",
      "name": "Petro Fuels Karragullen",
      "location": "KARRAGULLEN",
      "lat": -32.105085,
      "lng": 116.121421,
      "price": 311.9
    },
    {
      "id": "wa:SHOALWATER:Petro Fuels Shoalwater:diesel",
      "state": "WA",
      "source": "fuelwatch",
      "product": "diesel",
      "brand": "Caltex",
      "name": "Petro Fuels Shoalwater",
      "location": "SHOALWATER",
      "lat": -32.292358,
      "lng": 115.71055,
      "price": 311.9
    },
    {
      "id": "wa:BALDIVIS:Vibe Baldivis:diesel",
      "state": "WA",
      "source": "fuelwatch",
      "product": "diesel",
      "brand": "Vibe",
      "name": "Vibe Baldivis",
      "location": "BALDIVIS",
      "lat": -32.29762,
      "lng": 115.80712,
      "price": 312.7
    },
    {
      "id": "wa:ARMADALE:Vibe Armadale:diesel",
      "state": "WA",
      "source": "fuelwatch",
      "product": "diesel",
      "brand": "Vibe",
      "name": "Vibe Armadale",
      "location": "ARMADALE",
      "lat": -32.158168,
      "lng": 116.001834,
      "price": 312.7
    },
    {
      "id": "wa:MANDURAH:Vibe Mandurah:diesel",
      "state": "WA",
      "source": "fuelwatch",
      "product": "diesel",
      "brand": "Vibe",
      "name": "Vibe Mandurah",
      "location": "MANDURAH",
      "lat": -32.517315,
      "lng": 115.743891,
      "price": 312.7
    },
    {
      "id": "wa:KWINANA TOWN CENTRE:Vibe Kwinana Town Centre:diesel",
      "state": "WA",
      "source": "fuelwatch",
      "product": "diesel",
      "brand": "Vibe",
      "name": "Vibe Kwinana Town Centre",
      "location": "KWINANA TOWN CENTRE",
      "lat": -32.244599,
      "lng": 115.815592,
      "price": 312.7
    },
    {
      "id": "wa:BAYSWATER:Vibe Bayswater:diesel",
      "state": "WA",
      "source": "fuelwatch",
      "product": "diesel",
      "brand": "Vibe",
      "name": "Vibe Bayswater",
      "location": "BAYSWATER",
      "lat": -31.9046833,
      "lng": 115.9163268,
      "price": 312.7
    },
    {
      "id": "wa:DJUGUN:BP Broome Central Service Centre:diesel",
      "state": "WA",
      "source": "fuelwatch",
      "product": "diesel",
      "brand": "BP",
      "name": "BP Broome Central Service Centre",
      "location": "DJUGUN",
      "lat": -17.955171,
      "lng": 122.23711,
      "price": 312.9
    },
    {
      "id": "wa:WEST KALGOORLIE:Ampol Kalgoorlie Diesel Stop:diesel",
      "state": "WA",
      "source": "fuelwatch",
      "product": "diesel",
      "brand": "Ampol",
      "name": "Ampol Kalgoorlie Diesel Stop",
      "location": "WEST KALGOORLIE",
      "lat": -30.780942,
      "lng": 121.433593,
      "price": 312.9
    },
    {
      "id": "wa:KAMBALDA WEST:Kambalda Roadhouse:diesel",
      "state": "WA",
      "source": "fuelwatch",
      "product": "diesel",
      "brand": "Liberty",
      "name": "Kambalda Roadhouse",
      "location": "KAMBALDA WEST",
      "lat": -31.211491,
      "lng": 121.621704,
      "price": 312.9
    },
    {
      "id": "wa:BROOME:BP Shinju Broome:diesel",
      "state": "WA",
      "source": "fuelwatch",
      "product": "diesel",
      "brand": "BP",
      "name": "BP Shinju Broome",
      "location": "BROOME",
      "lat": -17.963667,
      "lng": 122.223915,
      "price": 312.9
    },
    {
      "id": "wa:COMO:Better Choice Como:diesel",
      "state": "WA",
      "source": "fuelwatch",
      "product": "diesel",
      "brand": "Better Choice",
      "name": "Better Choice Como",
      "location": "COMO",
      "lat": -31.994235,
      "lng": 115.859554,
      "price": 313.5
    },
    {
      "id": "wa:MARGARET RIVER:Better Choice Margaret River:diesel",
      "state": "WA",
      "source": "fuelwatch",
      "product": "diesel",
      "brand": "Better Choice",
      "name": "Better Choice Margaret River",
      "location": "MARGARET RIVER",
      "lat": -33.95989,
      "lng": 115.076412,
      "price": 313.5
    },
    {
      "id": "wa:EAST BUNBURY:Vibe Bunbury North:diesel",
      "state": "WA",
      "source": "fuelwatch",
      "product": "diesel",
      "brand": "Vibe",
      "name": "Vibe Bunbury North",
      "location": "EAST BUNBURY",
      "lat": -33.336038,
      "lng": 115.654472,
      "price": 313.7
    },
    {
      "id": "wa:SPENCER PARK:BP Spencer Park Service Station:diesel",
      "state": "WA",
      "source": "fuelwatch",
      "product": "diesel",
      "brand": "BP",
      "name": "BP Spencer Park Service Station",
      "location": "SPENCER PARK",
      "lat": -35.009033,
      "lng": 117.899664,
      "price": 313.9
    },
    {
      "id": "wa:KARRIDALE:Better Choice Karridale Roadhouse:diesel",
      "state": "WA",
      "source": "fuelwatch",
      "product": "diesel",
      "brand": "Better Choice",
      "name": "Better Choice Karridale Roadhouse",
      "location": "KARRIDALE",
      "lat": -34.202254,
      "lng": 115.099018,
      "price": 313.9
    },
    {
      "id": "wa:KWINANA BEACH:WA Fuel Kwinana Beach:diesel",
      "state": "WA",
      "source": "fuelwatch",
      "product": "diesel",
      "brand": "WA Fuels",
      "name": "WA Fuel Kwinana Beach",
      "location": "KWINANA BEACH",
      "lat": -32.242756,
      "lng": 115.782316,
      "price": 313.9
    },
    {
      "id": "wa:SOUTH GUILDFORD:WA Fuel South Guildford:diesel",
      "state": "WA",
      "source": "fuelwatch",
      "product": "diesel",
      "brand": "WA Fuels",
      "name": "WA Fuel South Guildford",
      "location": "SOUTH GUILDFORD",
      "lat": -31.913995,
      "lng": 115.97207,
      "price": 313.9
    },
    {
      "id": "wa:SWANBOURNE:Astron Swanbourne:diesel",
      "state": "WA",
      "source": "fuelwatch",
      "product": "diesel",
      "brand": "Astron",
      "name": "Astron Swanbourne",
      "location": "SWANBOURNE",
      "lat": -31.983608,
      "lng": 115.767278,
      "price": 313.9
    },
    {
      "id": "wa:FITZROY CROSSING:Ampol Fitzroy Crossing Diesel Stop:diesel",
      "state": "WA",
      "source": "fuelwatch",
      "product": "diesel",
      "brand": "Ampol",
      "name": "Ampol Fitzroy Crossing Diesel Stop",
      "location": "FITZROY CROSSING",
      "lat": -18.198737,
      "lng": 125.56923,
      "price": 314.2
    },
    {
      "id": "wa:BELLEVUE:Better Choice Bellevue:diesel",
      "state": "WA",
      "source": "fuelwatch",
      "product": "diesel",
      "brand": "Better Choice",
      "name": "Better Choice Bellevue",
      "location": "BELLEVUE",
      "lat": -31.893058,
      "lng": 116.019419,
      "price": 314.5
    },
    {
      "id": "wa:WATERLOO:Gull Waterloo:diesel",
      "state": "WA",
      "source": "fuelwatch",
      "product": "diesel",
      "brand": "Gull",
      "name": "Gull Waterloo",
      "location": "WATERLOO",
      "lat": -33.323631,
      "lng": 115.770208,
      "price": 314.7
    },
    {
      "id": "wa:GIDGEGANNUP:Vibe Toodyay Rd:diesel",
      "state": "WA",
      "source": "fuelwatch",
      "product": "diesel",
      "brand": "Vibe",
      "name": "Vibe Toodyay Rd",
      "location": "GIDGEGANNUP",
      "lat": -31.794245,
      "lng": 116.193148,
      "price": 314.7
    },
    {
      "id": "wa:DENMARK:Petro Fuels Denmark:diesel",
      "state": "WA",
      "source": "fuelwatch",
      "product": "diesel",
      "brand": "Petro Fuels",
      "name": "Petro Fuels Denmark",
      "location": "DENMARK",
      "lat": -34.96176,
      "lng": 117.35116,
      "price": 314.9
    },
    {
      "id": "wa:NEERABUP:Astron Neerabup:diesel",
      "state": "WA",
      "source": "fuelwatch",
      "product": "diesel",
      "brand": "Astron",
      "name": "Astron Neerabup",
      "location": "NEERABUP",
      "lat": -31.672434,
      "lng": 115.743141,
      "price": 314.9
    },
    {
      "id": "wa:SERPENTINE:Serpentine Falls Roadhouse:diesel",
      "state": "WA",
      "source": "fuelwatch",
      "product": "diesel",
      "brand": "Independent",
      "name": "Serpentine Falls Roadhouse",
      "location": "SERPENTINE",
      "lat": -32.364781,
      "lng": 115.991703,
      "price": 314.9
    },
    {
      "id": "wa:CATABY:Petro Fuels Cataby:diesel",
      "state": "WA",
      "source": "fuelwatch",
      "product": "diesel",
      "brand": "Ampol",
      "name": "Petro Fuels Cataby",
      "location": "CATABY",
      "lat": -30.753218,
      "lng": 115.558623,
      "price": 314.9
    },
    {
      "id": "wa:CAPEL:Colroy Country Kitchen:diesel",
      "state": "WA",
      "source": "fuelwatch",
      "product": "diesel",
      "brand": "Ampol",
      "name": "Colroy Country Kitchen",
      "location": "CAPEL",
      "lat": -33.551653,
      "lng": 115.563367,
      "price": 314.9
    },
    {
      "id": "wa:BLUFF POINT:Petro Fuels Bluff Point:diesel",
      "state": "WA",
      "source": "fuelwatch",
      "product": "diesel",
      "brand": "Petro Fuels",
      "name": "Petro Fuels Bluff Point",
      "location": "BLUFF POINT",
      "lat": -28.74142,
      "lng": 114.622456,
      "price": 314.9
    },